loggingTime;loggingSample;identifierForVendor;deviceID;locationTimestamp_since1970;locationLatitude;locationLongitude;locationAltitude;locationSpeed;locationCourse;locationVerticalAccuracy;locationHorizontalAccuracy;locationFloor;locationHeadingTimestamp_since1970;locationHeadingX;locationHeadingY;locationHeadingZ;locationTrueHeading;locationMagneticHeading;locationHeadingAccuracy;accelerometerTimestamp_sinceReboot;accelerometerAccelerationX;accelerometerAccelerationY;accelerometerAccelerationZ;gyroTimestamp_sinceReboot;gyroRotationX;gyroRotationY;gyroRotationZ;magnetometerTimestamp_sinceReboot;magnetometerX;magnetometerY;magnetometerZ;motionTimestamp_sinceReboot;motionYaw;motionRoll;motionPitch;motionRotationRateX;motionRotationRateY;motionRotationRateZ;motionUserAccelerationX;motionUserAccelerationY;motionUserAccelerationZ;motionAttitudeReferenceFrame;motionQuaternionX;motionQuaternionY;motionQuaternionZ;motionQuaternionW;motionGravityX;motionGravityY;motionGravityZ;motionMagneticFieldX;motionMagneticFieldY;motionMagneticFieldZ;motionMagneticFieldCalibrationAccuracy;activityTimestamp_sinceReboot;activity;activityActivityConfidence;activityActivityStartDate;altimeterTimestamp_sinceReboot;altimeterReset;altimeterRelativeAltitude;altimeterPressure;IP_en0;IP_pdp_ip0;deviceOrientation;batteryState;batteryLevel;avAudioRecorderPeakPower;avAudioRecorderAveragePower;label
1556984926.599841;1;0;0;1556984921.418198;4.403316220399551;-75.14706936697988;969.7328;-1;-1;10;165;-9999;1556984926.59543;-37.73798751831055;-8.045446395874023;-13.05328369140625;98.20423126220703;104.9780807495117;30;86290.36086325001;-0.0158233642578125;-0.9916534423828125;-0.104339599609375;86290.35384425;-0.0101434479598938;0.005594768818038463;0.009328520666329556;86290.35485125;-14.04376220703125;30.0225830078125;-419.7965698242188;86290.35286725001;2.994759997447478;-0.1141167709873637;1.477624021835855;3.637839108705521e-05;-0.0001931777223944664;0.0006882520392537117;-0.005244195461273193;0.003632783889770508;-0.0123368501663208;2;-0.09135956317186356;-0.6674110293388367;-0.7332607507705688;-0.09243682026863098;-0.01059405691921711;-0.9956626296043396;-0.09243189543485641;-37.51213073730469;-7.908369064331055;-12.84829711914062;2;86289.59500725;2;0;1556984925.782465;86287.755049;0;0.02111816;90.53377;3232235846;179021379;1;1;0.35;-21.01155;-26.57409;0
1556984926.60221;2;0;0;1556984921.418198;4.403316220399551;-75.14706936697988;969.7328;-1;-1;10;165;-9999;1556984926.59543;-37.73798751831055;-8.045446395874023;-13.05328369140625;98.20423126220703;104.9780807495117;30;86290.37087325001;-0.015472412109375;-0.990997314453125;-0.1053009033203125;86290.36385425001;-0.009699499006177593;0.007398527824349132;0.008901882259698861;86290.35485125;-14.04376220703125;30.0225830078125;-419.7965698242188;86290.36287725001;2.994931105457698;-0.1142782411009691;1.477620073278535;-0.0001194290816783905;0.001971447840332985;0.002633750438690186;-0.00504564493894577;0.00441056489944458;-0.01208996772766113;2;-0.0913616344332695;-0.6674097180366516;-0.733262836933136;-0.09242799878120422;-0.01060949359089136;-0.9956622123718262;-0.09243463724851608;-37.42643356323242;-7.819789886474609;-12.95785522460938;2;86289.59500725;2;0;1556984925.782465;86287.755049;0;0.02111816;90.53377;3232235846;179021379;1;1;0.35;-21.01155;-26.57409;0
1556984926.604493;3;0;0;1556984921.418198;4.403316220399551;-75.14706936697988;969.7328;-1;-1;10;165;-9999;1556984926.59543;-37.73798751831055;-8.045446395874023;-13.05328369140625;98.20423126220703;104.9780807495117;30;86290.38091325;-0.0149078369140625;-0.99102783203125;-0.1046142578125;86290.37386325;-0.00919855840513369;0.006189985321671173;0.00935248911614027;86290.37432125001;-14.36502075195312;29.95697021484375;-419.8202514648438;86290.37288725001;2.995051987020887;-0.1143992325605289;1.477632521254103;0.003246806096285582;-9.411480277776718e-06;0.00133998692035675;-0.004776403307914734;0.004747450351715088;-0.01274377107620239;2;-0.0913657546043396;-0.6674140095710754;-0.7332589626312256;-0.09242402762174606;-0.01061933487653732;-0.9956634044647217;-0.09242168068885803;-37.42643356323242;-7.819789886474609;-12.95785522460938;2;86289.59500725;2;0;1556984925.782465;86287.755049;0;0.02111816;90.53377;3232235846;179021379;1;1;0.35;-21.01155;-26.52434;0
1556984926.606969;4;0;0;1556984921.418198;4.403316220399551;-75.14706936697988;969.7328;-1;-1;10;165;-9999;1556984926.59543;-37.73798751831055;-8.045446395874023;-13.05328369140625;98.20423126220703;104.9780807495117;30;86290.39092325;-0.0153045654296875;-0.9914703369140625;-0.1044464111328125;86290.38387325;-0.008319448929298532;0.006919158828134869;0.009078183523862107;86290.37432125001;-14.36502075195312;29.95697021484375;-419.8202514648438;86290.38289725001;2.9951480981792;-0.1145068911870013;1.477627005180042;-0.0001306962221860886;-0.002206992357969284;0.0006194822490215302;-0.004201285541057587;0.004670619964599609;-0.01196157932281494;2;-0.09137310832738876;-0.6674115061759949;-0.7332602143287659;-0.09242472797632217;-0.0106298765167594;-0.9956628680229187;-0.09242567420005798;-37.59518432617188;-7.825410842895508;-12.99703979492188;2;86289.59500725;2;0;1556984925.782465;86287.755049;0;0.02111816;90.53377;3232235846;179021379;1;1;0.35;-21.01155;-26.52434;0
1556984926.608932;5;0;0;1556984921.418198;4.403316220399551;-75.14706936697988;969.7328;-1;-1;10;165;-9999;1556984926.59543;-37.73798751831055;-8.045446395874023;-13.05328369140625;98.20423126220703;104.9780807495117;30;86290.40093325;-0.0155487060546875;-0.991455078125;-0.1044921875;86290.39391325001;-0.009119196204649328;0.005869873358643649;0.008801747402711882;86290.39379125001;-14.45587158203125;29.76954650878906;-420.0703125;86290.39293725;2.995201036225967;-0.114562846000487;1.477628873035762;0.000972650945186615;-0.0004706112667918205;0.0001797936856746674;-0.004883050918579102;0.004045188426971436;-0.01214784383773804;2;-0.09137596935033798;-0.667412281036377;-0.7332592010498047;-0.09242396801710129;-0.01063475757837296;-0.995663046836853;-0.09242255985736847;-37.65016174316406;-7.981843948364258;-13.14425659179688;2;86289.59500725;2;0;1556984925.782465;86287.755049;0;0.02111816;90.53377;3232235846;179021379;1;1;0.35;-21.01155;-26.52434;0
1556984926.610235;6;0;0;1556984921.418198;4.403316220399551;-75.14706936697988;969.7328;-1;-1;10;165;-9999;1556984926.59543;-37.73798751831055;-8.045446395874023;-13.05328369140625;98.20423126220703;104.9780807495117;30;86290.41097325001;-0.0148773193359375;-0.9905853271484375;-0.104278564453125;86290.40392325001;-0.009336776465708801;0.009568205164436686;0.006169745297386571;86290.39379125001;-14.45587158203125;29.76954650878906;-420.0703125;86290.40294725001;2.995240256847415;-0.1146017777902207;1.477623587107335;-0.0007429067045450211;-0.0008552838116884232;0.001487241126596928;-0.004894018173217773;0.004456698894500732;-0.01208114624023438;2;-0.09137711673974991;-0.6674100160598755;-0.7332613468170166;-0.09242261946201324;-0.01063905190676451;-0.9956625699996948;-0.09242818504571915;-37.65016174316406;-7.981843948364258;-13.14425659179688;2;86289.59500725;2;0;1556984925.782465;86287.755049;0;0.02111816;90.53377;3232235846;179021379;1;1;0.35;-21.01155;-26.52434;0
1556984926.611535;7;0;0;1556984921.418198;4.403316220399551;-75.14706936697988;969.7328;-1;-1;10;165;-9999;1556984926.59543;-37.73798751831055;-8.045446395874023;-13.05328369140625;98.20423126220703;104.9780807495117;30;86290.42098325001;-0.014923095703125;-0.9915008544921875;-0.103973388671875;86290.41393325001;-0.0086544745944305;0.006402771892768505;0.008627842983529707;86290.41323125;-14.62149047851562;29.74945068359375;-419.9887084960938;86290.41295625;2.995310937155706;-0.11466710056457;1.47762070060939;-0.000304284505546093;0.0006214389577507973;0.001552222296595573;-0.004139907658100128;0.005051493644714355;-0.01183426380157471;2;-0.09137745946645737;-0.6674089431762695;-0.733262836933136;-0.09241852909326553;-0.01064548455178738;-0.9956622719764709;-0.09243092685937881;-37.73798751831055;-8.045446395874023;-13.05328369140625;2;86289.59500725;2;0;1556984925.782465;86287.755049;0;0.02111816;90.53377;3232235846;179021379;1;1;0.35;-21.01155;-26.52434;0
1556984926.613676;8;0;0;1556984921.418198;4.403316220399551;-75.14706936697988;969.7328;-1;-1;10;165;-9999;1556984926.59543;-37.73798751831055;-8.045446395874023;-13.05328369140625;98.20423126220703;104.9780807495117;30;86290.43099225001;-0.0163116455078125;-0.990631103515625;-0.1044769287109375;86290.42397325;-0.009695504264542475;0.008914665432931242;0.008706139919578037;86290.41323125;-14.62149047851562;29.74945068359375;-419.9887084960938;86290.42299725;2.995380388772318;-0.1147325005603544;1.477618067825886;0.0005710925906896591;0.000776476226747036;0.0002705100923776627;-0.004637062549591064;0.004181563854217529;-0.01152682304382324;2;-0.09137824177742004;-0.6674079895019531;-0.7332640886306763;-0.09241490811109543;-0.01065187063068151;-0.9956620335578918;-0.09243318438529968;-37.73798751831055;-8.045446395874023;-13.05328369140625;2;86289.59500725;2;0;1556984925.782465;86287.755049;0;0.02111816;90.53377;3232235846;179021379;1;1;0.35;-21.01155;-26.52434;0
1556984926.62263;9;0;0;1556984921.418198;4.403316220399551;-75.14706936697988;969.7328;-1;-1;10;165;-9999;1556984926.619202;-37.39778518676758;-8.001529693603516;-13.07229614257812;98.20371246337891;104.9775619506836;30;86290.44100225001;-0.0159759521484375;-0.9906158447265625;-0.1043853759765625;86290.43398325001;-0.01005316679894012;0.005638977292133779;0.01038925772850812;86290.43270125;-14.18276977539062;29.75544738769531;-420.0005493164062;86290.43300625001;2.995546326156001;-0.1148901160471203;1.477607312604272;0.0006262194365262985;0.001237736083567142;0.001597297377884388;-0.005842164158821106;0.005309939384460449;-0.0119776725769043;2;-0.09138056635856628;-0.6674049496650696;-0.7332674860954285;-0.09240666031837463;-0.0106674712151289;-0.9956610202789307;-0.09244044870138168;-37.39778518676758;-8.001529693603516;-13.07229614257812;2;86289.59500725;2;0;1556984925.782465;86287.755049;0;0.02111816;90.53377;3232235846;179021379;1;1;0.35;-21.01155;-26.52434;0
1556984926.633868;10;0;0;1556984921.418198;4.403316220399551;-75.14706936697988;969.7328;-1;-1;10;165;-9999;1556984926.619202;-37.39778518676758;-8.001529693603516;-13.07229614257812;98.20371246337891;104.9775619506836;30;86290.45104225;-0.0153350830078125;-0.991424560546875;-0.10540771484375;86290.44399325001;-0.007118895909890811;0.007111172742729582;0.009656888428736325;86290.43270125;-14.18276977539062;29.75544738769531;-420.0005493164062;86290.44301625001;2.995669260228092;-0.115011639350462;1.477599385772208;3.714673221111298e-05;-4.084128886461258e-05;0.0003473572432994843;-0.005204372107982635;0.004988789558410645;-0.0122607946395874;2;-0.09138403832912445;-0.667401909828186;-0.7332704067230225;-0.09240217506885529;-0.01067964546382427;-0.9956603050231934;-0.09244729578495026;-37.39778518676758;-8.001529693603516;-13.07229614257812;2;86289.59500725;2;0;1556984925.782465;86287.755049;0;0.02111816;90.53377;3232235846;179021379;1;1;0.35;-21.01155;-27.24916;0
1556984926.652923;11;0;0;1556984921.418198;4.403316220399551;-75.14706936697988;969.7328;-1;-1;10;165;-9999;1556984926.645534;-37.29931640625;-7.886646270751953;-12.94906616210938;98.20353698730469;104.9773864746094;30;86290.46105225;-0.0151519775390625;-0.99176025390625;-0.1045989990234375;86290.45400325001;-0.008700547281288872;0.007298925599580168;0.009823602312975285;86290.45217225001;-13.9559326171875;29.95623779296875;-419.8017578125;86290.45302625;2.995696532896051;-0.1150361651304973;1.47759697671085;-0.0003817686811089516;0.0002507749013602734;-0.0004907390102744102;-0.004499904811382294;0.004057765007019043;-0.01292985677719116;2;-0.0913839116692543;-0.6674010753631592;-0.7332714200019836;-0.09240037202835083;-0.01068220566958189;-0.9956600666046143;-0.09244956821203232;-37.29931640625;-7.886646270751953;-12.94906616210938;2;86289.59500725;2;0;1556984925.782465;86287.755049;0;0.02111816;90.53377;3232235846;179021379;1;1;0.35;-21.01155;-27.41111;0
1556984926.65501;12;0;0;1556984921.418198;4.403316220399551;-75.14706936697988;969.7328;-1;-1;10;165;-9999;1556984926.645534;-37.29931640625;-7.886646270751953;-12.94906616210938;98.20353698730469;104.9773864746094;30;86290.47106225;-0.0149688720703125;-0.9914398193359375;-0.103759765625;86290.46404325;-0.008104531829329138;0.006916761983153798;0.008403072187527021;86290.47164225001;-14.134521484375;30.20199584960938;-419.6727294921875;86290.46306625;2.995747225559538;-0.1150891780311749;1.477590887154063;-0.0006469124928116798;0.000253012403845787;0.0002990113571286201;-0.004418045282363892;0.004225075244903564;-0.01203954219818115;2;-0.09138638526201248;-0.6673987507820129;-0.7332733273506165;-0.09239949285984039;-0.01068778522312641;-0.9956595301628113;-0.09245487302541733;-37.29931640625;-7.886646270751953;-12.94906616210938;2;86289.59500725;2;0;1556984925.782465;86287.755049;0;0.02111816;90.53377;3232235846;179021379;1;1;0.35;-21.01155;-27.41111;0
1556984926.663373;13;0;0;1556984921.418198;4.403316220399551;-75.14706936697988;969.7328;-1;-1;10;165;-9999;1556984926.645534;-37.29931640625;-7.886646270751953;-12.94906616210938;98.20353698730469;104.9773864746094;30;86290.48110225001;-0.0149688720703125;-0.991668701171875;-0.104522705078125;86290.47405325;-0.008993761317306595;0.007714911361850545;0.01114985653583475;86290.47164225001;-14.134521484375;30.20199584960938;-419.6727294921875;86290.47307625001;2.995853394673407;-0.1151936216604524;1.477587507233417;-0.0004900526255369186;0.000282573513686657;0.0001956811174750328;-0.004209376871585846;0.004071831703186035;-0.0112261176109314;2;-0.09138923138380051;-0.6673967242240906;-0.7332754731178284;-0.09239548444747925;-0.01069807633757591;-0.9956591725349426;-0.09245923906564713;-37.44190979003906;-7.695648193359375;-12.91702270507812;2;86289.59500725;2;0;1556984925.782465;86287.755049;0;0.02111816;90.53377;3232235846;179021379;1;1;0.35;-21.01155;-27.41111;0
1556984926.672756;14;0;0;1556984921.418198;4.403316220399551;-75.14706936697988;969.7328;-1;-1;10;165;-9999;1556984926.669288;-37.44190979003906;-7.695648193359375;-12.91702270507812;98.20377349853516;104.9776229858398;30;86290.49111225001;-0.0157928466796875;-0.9911346435546875;-0.1046905517578125;86290.48406225001;-0.009998571996593491;0.007209976019171522;0.01002120886585917;86290.49111225001;-14.23117065429688;29.98933410644531;-419.8340454101562;86290.48308625001;2.995968537321294;-0.1153066836393762;1.477583882671483;0.0008465908467769623;0.0002247793599963188;0.0003462927415966988;-0.004381865262985229;0.004346489906311035;-0.01232492923736572;2;-0.09139222651720047;-0.6673962473869324;-0.7332759499549866;-0.09239095449447632;-0.01070869062095881;-0.9956588745117188;-0.09245941787958145;-37.44190979003906;-7.695648193359375;-12.91702270507812;2;86289.59500725;2;0;1556984925.782465;86287.755049;0;0.02111816;90.53377;3232235846;179021379;1;1;0.35;-21.01155;-27.62601;0
1556984926.682891;15;0;0;1556984921.418198;4.403316220399551;-75.14706936697988;969.7328;-1;-1;10;165;-9999;1556984926.669288;-37.44190979003906;-7.695648193359375;-12.91702270507812;98.20377349853516;104.9776229858398;30;86290.50112225;-0.01519775390625;-0.9910736083984375;-0.1045989990234375;86290.49407225;-0.008592156624922647;0.007975634832569302;0.008870723274944935;86290.49111225001;-14.23117065429688;29.98933410644531;-419.8340454101562;86290.49309625001;2.995965228989256;-0.1153123737355618;1.477577395325484;-0.0006551649421453476;-0.002331855241209269;-0.0008760979399085045;-0.004884049296379089;0.004330575466156006;-0.01202785968780518;2;-0.09139537066221237;-0.6673931479454041;-0.7332780361175537;-0.09239410609006882;-0.01071004942059517;-0.995658278465271;-0.09246654808521271;-37.50768280029297;-7.790931701660156;-12.98678588867188;2;86289.59500725;2;0;1556984925.782465;86287.755049;0;0.02111816;90.53377;3232235846;179021379;1;1;0.35;-21.01155;-27.62601;0
1556984926.692774;16;0;0;1556984921.418198;4.403316220399551;-75.14706936697988;969.7328;-1;-1;10;165;-9999;1556984926.669288;-37.44190979003906;-7.695648193359375;-12.91702270507812;98.20377349853516;104.9776229858398;30;86290.51113125001;-0.015899658203125;-0.991424560546875;-0.10418701171875;86290.50411225001;-0.009888583443573219;0.007274158201442431;0.008018511726119578;86290.51055225001;-14.40824890136719;29.96627807617188;-420.0778503417969;86290.50313625;2.995923799494316;-0.1152692908482466;1.477581920079765;0.0008496986702084541;0.0002098055556416512;-0.00144222704693675;-0.004522345960140228;0.004956603050231934;-0.0122455358505249;2;-0.09139343351125717;-0.6673949360847473;-0.7332765460014343;-0.09239490330219269;-0.01070554088801146;-0.9956586956977844;-0.09246248006820679;-37.50768280029297;-7.790931701660156;-12.98678588867188;2;86289.59500725;2;0;1556984925.782465;86287.755049;0;0.02111816;90.53377;3232235846;179021379;1;1;0.35;-21.01155;-27.62601;0
1556984926.702918;17;0;0;1556984921.418198;4.403316220399551;-75.14706936697988;969.7328;-1;-1;10;165;-9999;1556984926.69542;-37.58473587036133;-7.827005386352539;-13.1282958984375;98.20421600341797;104.9780654907227;30;86290.52117225001;-0.01519775390625;-0.99102783203125;-0.1040496826171875;86290.51412225001;-0.008809470569873112;0.007347927763637626;0.007429953125212067;86290.51055225001;-14.40824890136719;29.96627807617188;-420.0778503417969;86290.51314625;2.995858134968792;-0.1152113462656381;1.477580711262775;-0.0001316769048571587;-0.00122803496196866;-0.001337298192083836;-0.005138002336025238;0.004117250442504883;-0.01167994737625122;2;-0.0913940891623497;-0.6673944592475891;-0.7332762479782104;-0.09239962697029114;-0.01070023141801357;-0.9956585764884949;-0.09246351569890976;-37.58473587036133;-7.827005386352539;-13.1282958984375;2;86289.59500725;2;0;1556984925.782465;86287.755049;0;0.02111816;90.53377;3232235846;179021379;1;1;0.35;-18.16583;-26.28111;0
1556984926.735975;18;0;0;1556984921.418198;4.403316220399551;-75.14706936697988;969.7328;-1;-1;10;165;-9999;1556984926.719349;-37.56288909912109;-7.823301315307617;-13.02740478515625;98.20515441894531;104.97900390625;30;86290.53118225001;-0.0149688720703125;-0.989959716796875;-0.104156494140625;86290.52413225001;-0.008449677506603408;0.005830724890619484;0.009893643449644369;86290.53002225001;-14.40309143066406;29.93766784667969;-419.892578125;86290.52315525;2.995866075503752;-0.1152244063179088;1.477581125886914;-0.0003185281530022621;-0.0007185074500739574;-0.0003635259345173836;-0.00454162061214447;0.004987061023712158;-0.01148092746734619;2;-0.09139623492956161;-0.6673939228057861;-0.7332763671875;-0.09240110218524933;-0.01070152968168259;-0.9956586360931396;-0.09246415644884109;-37.58473587036133;-7.827005386352539;-13.1282958984375;2;86289.59500725;2;0;1556984925.782465;86287.755049;0;0.02111816;90.53377;3232235846;179021379;1;1;0.35;-18.16583;-22.81119;0
1556984926.738374;19;0;0;1556984921.418198;4.403316220399551;-75.14706936697988;969.7328;-1;-1;10;165;-9999;1556984926.719349;-37.56288909912109;-7.823301315307617;-13.02740478515625;98.20515441894531;104.97900390625;30;86290.54119125;-0.015411376953125;-0.99029541015625;-0.1043548583984375;86290.53417225;-0.009406817602377885;0.007490140565847857;0.007453122626695756;86290.53002225001;-14.40309143066406;29.93766784667969;-419.892578125;86290.53319625001;2.995941764947245;-0.1153116292709377;1.477589891928761;0.002480453811585903;-0.001342752482742071;0.000469510443508625;-0.004275158047676086;0.005613446235656738;-0.0117957592010498;2;-0.09140302240848541;-0.667396605014801;-0.733272910118103;-0.09240242838859558;-0.01070858631283045;-0.9956594109535217;-0.09245451539754868;-37.56288909912109;-7.823301315307617;-13.02740478515625;2;86289.59500725;2;0;1556984925.782465;86287.755049;0;0.02111816;90.53377;3232235846;179021379;1;1;0.35;-18.16583;-22.81119;0
1556984926.740472;20;0;0;1556984921.418198;4.403316220399551;-75.14706936697988;969.7328;-1;-1;10;165;-9999;1556984926.719349;-37.56288909912109;-7.823301315307617;-13.02740478515625;98.20515441894531;104.97900390625;30;86290.55123225;-0.0156707763671875;-0.990875244140625;-0.1043701171875;86290.54418225;-0.01109526173348812;0.008176969810979293;0.009627061024527438;86290.54949225001;-14.12347412109375;29.80563354492188;-419.8018798828125;86290.54320525001;2.996032346159995;-0.1153970300437529;1.477573362210385;-0.001419326290488243;0.001025679986923933;0.0009231539443135262;-0.004494234919548035;0.004971086978912354;-0.01176494359970093;2;-0.09140398353338242;-0.6673906445503235;-0.7332788109779358;-0.0923977717757225;-0.01071839220821857;-0.9956578612327576;-0.09247007966041565;-37.56288909912109;-7.823301315307617;-13.02740478515625;2;86289.59500725;2;0;1556984925.782465;86287.755049;0;0.02111816;90.53377;3232235846;179021379;1;1;0.35;-18.16583;-22.81119;0
1556984926.743433;21;0;0;1556984921.418198;4.403316220399551;-75.14706936697988;969.7328;-1;-1;10;165;-9999;1556984926.719349;-37.56288909912109;-7.823301315307617;-13.02740478515625;98.20515441894531;104.97900390625;30;86290.56124125;-0.0153656005859375;-0.991424560546875;-0.104400634765625;86290.55419225001;-0.008097341294385925;0.007701595556400149;0.00825180463761052;86290.54949225001;-14.12347412109375;29.80563354492188;-419.8018798828125;86290.55321525001;2.996068936409424;-0.1154326617528938;1.47756405461444;-0.0002411436289548874;-8.379248902201653e-05;-0.0001996355131268501;-0.005130819976329803;0.005046546459197998;-0.0118788480758667;2;-0.09140476584434509;-0.6673874855041504;-0.7332817316055298;-0.09239625930786133;-0.01072267536073923;-0.9956570267677307;-0.09247822314500809;-37.38324737548828;-7.894308090209961;-12.93270874023438;2;86289.59500725;2;0;1556984925.782465;86287.755049;0;0.02111816;90.53377;3232235846;179021379;1;1;0.35;-18.16583;-23.42065;0
1556984926.752938;22;0;0;1556984921.418198;4.403316220399551;-75.14706936697988;969.7328;-1;-1;10;165;-9999;1556984926.745614;-37.38324737548828;-7.894308090209961;-12.93270874023438;98.20529937744141;104.9791488647461;30;86290.57125125;-0.0152435302734375;-0.99224853515625;-0.1045074462890625;86290.56420225001;-0.009545035662952998;0.008604140849828003;0.00712928223814212;86290.56893225001;-14.13102722167969;29.80026245117188;-419.6553649902344;86290.56322525001;2.996050390639246;-0.1154212967400958;1.477551960665989;-0.001228954643011093;-0.002299405634403229;-3.240630030632019e-05;-0.004550710320472717;0.00373309850692749;-0.01179105043411255;2;-0.0914066955447197;-0.6673828959465027;-0.7332852482795715;-0.09239929169416428;-0.01072294916957617;-0.99565589427948;-0.09248977154493332;-37.38324737548828;-7.894308090209961;-12.93270874023438;2;86289.59500725;2;0;1556984925.782465;86287.755049;0;0.02111816;90.53377;3232235846;179021379;1;1;0.35;-18.16583;-23.42065;0
1556984926.76309;23;0;0;1556984921.418198;4.403316220399551;-75.14706936697988;969.7328;-1;-1;10;165;-9999;1556984926.745614;-37.38324737548828;-7.894308090209961;-12.93270874023438;98.20529937744141;104.9791488647461;30;86290.58126125;-0.0152587890625;-0.991058349609375;-0.1035919189453125;86290.57424225;-0.009751963279652155;0.008963933913097707;0.007797469355643002;86290.56893225001;-14.13102722167969;29.80026245117188;-419.6553649902344;86290.57326525;2.99600246123147;-0.1153707769981488;1.477550618066466;0.001181738451123238;-0.0004149526357650757;-0.0006097797304391861;-0.004723139107227325;0.003717720508575439;-0.01194220781326294;2;-0.09140415489673615;-0.6673827171325684;-0.7332856059074402;-0.09239999949932098;-0.01071837637573481;-0.9956557750701904;-0.09249117970466614;-37.35903167724609;-7.954801559448242;-12.8548583984375;2;86289.59500725;2;0;1556984925.782465;86287.755049;0;0.02111816;90.53377;3232235846;179021379;1;1;0.35;-18.16583;-23.42065;0
1556984926.772972;24;0;0;1556984921.418198;4.403316220399551;-75.14706936697988;969.7328;-1;-1;10;165;-9999;1556984926.769332;-37.35903167724609;-7.954801559448242;-12.8548583984375;98.20415496826172;104.9780044555664;30;86290.59130125001;-0.01556396484375;-0.9912567138671875;-0.10443115234375;86290.58425225;-0.00895328126873739;0.008161523476656834;0.008346346856308333;86290.58840225001;-13.92881774902344;29.78453063964844;-419.8037719726562;86290.58327525;2.996023295484631;-0.1153816952690556;1.477551410692238;0.0007989061996340752;0.001112266909331083;2.502184361219406e-05;-0.004523582756519318;0.004663586616516113;-0.01117753982543945;2;-0.09140121936798096;-0.6673825979232788;-0.7332867383956909;-0.09239605814218521;-0.01071956101804972;-0.9956558346748352;-0.09249257296323776;-37.35903167724609;-7.954801559448242;-12.8548583984375;2;86289.59500725;2;0;1556984925.782465;86287.755049;0;0.02111816;90.53377;3232235846;179021379;1;1;0.35;-18.16583;-23.70821;0
1556984926.783028;25;0;0;1556984921.418198;4.403316220399551;-75.14706936697988;969.7328;-1;-1;10;165;-9999;1556984926.769332;-37.35903167724609;-7.954801559448242;-12.8548583984375;98.20415496826172;104.9780044555664;30;86290.60131125001;-0.016082763671875;-0.9902496337890625;-0.1047515869140625;86290.59426125001;-0.01098181107105075;0.007365770942941157;0.008103999197111121;86290.58840225001;-13.92881774902344;29.78453063964844;-419.8037719726562;86290.59328525001;2.996094872516822;-0.1154377008071157;1.477546290166653;0.0003802580758929253;0.001402551773935556;0.0005185054615139961;-0.00517398864030838;0.00476992130279541;-0.01216524839401245;2;-0.09139782935380936;-0.6673815250396729;-0.7332890629768372;-0.09238851070404053;-0.01072528678923845;-0.995655357837677;-0.09249667078256607;-37.30621719360352;-8.001768112182617;-13.00445556640625;2;86289.59500725;2;0;1556984925.782465;86287.755049;0;0.02111816;90.53377;3232235846;179021379;1;1;0.35;-18.16583;-23.70821;0
1556984926.79393;26;0;0;1556984921.418198;4.403316220399551;-75.14706936697988;969.7328;-1;-1;10;165;-9999;1556984926.769332;-37.35903167724609;-7.954801559448242;-12.8548583984375;98.20415496826172;104.9780044555664;30;86290.61132125001;-0.015106201171875;-0.990875244140625;-0.1033172607421875;86290.60430225001;-0.009625729443982399;0.007318899307755762;0.01110884385504753;86290.60787225001;-14.0548095703125;29.68637084960938;-419.8656311035156;86290.60332525001;2.996210329969822;-0.1155485357800235;1.477544001551484;0.001069134101271629;0.0006230170838534832;0.001035385765135288;-0.004888787865638733;0.005456387996673584;-0.01185876131057739;2;-0.09139992296695709;-0.6673807501792908;-0.7332901954650879;-0.09238317608833313;-0.01073582842946053;-0.9956551790237427;-0.09249797463417053;-37.30621719360352;-8.001768112182617;-13.00445556640625;2;86289.59500725;2;0;1556984925.782465;86287.755049;0;0.02111816;90.53377;3232235846;179021379;1;1;0.35;-18.16583;-24.52448;0
1556984926.820144;27;0;0;1556984921.418198;4.403316220399551;-75.14706936697988;969.7328;-1;-1;10;165;-9999;1556984926.796726;-37.32607269287109;-8.079771041870117;-13.03924560546875;98.20372772216797;104.9775772094727;30;86290.62133025001;-0.0151214599609375;-0.99188232421875;-0.104339599609375;86290.61431125;-0.009028382411477626;0.007105313788331407;0.009387376526420306;86290.60787225001;-14.0548095703125;29.68637084960938;-419.8656311035156;86290.61333525;2.996313222045063;-0.1156555119481539;1.477540915607813;-9.200349450111389e-05;0.0003031715750694275;0.001019939780235291;-0.00429871678352356;0.004494726657867432;-0.01100242137908936;2;-0.09140478819608688;-0.6673793792724609;-0.7332910895347595;-0.09238115698099136;-0.01074607484042645;-0.9956548810005188;-0.09249985963106155;-37.32607269287109;-8.079771041870117;-13.03924560546875;2;86289.59500725;2;0;1556984925.782465;86287.755049;0;0.02111816;90.53377;3232235846;179021379;1;1;0.35;-18.16583;-24.83043;0
1556984926.822576;28;0;0;1556984921.418198;4.403316220399551;-75.14706936697988;969.7328;-1;-1;10;165;-9999;1556984926.819701;-37.57553863525391;-7.914997100830078;-13.02105712890625;98.20275115966797;104.9766006469727;30;86290.63137125001;-0.0157012939453125;-0.9904937744140625;-0.1043548583984375;86290.62432125001;-0.009580455705451052;0.008537561822576022;0.007012369466287642;86290.62734225001;-14.46458435058594;29.85824584960938;-419.9204711914062;86290.62334525;2.996232960023766;-0.1155745188679831;1.47753890204589;-0.0002115210518240929;0.0002641398459672928;-0.001314126420766115;-0.00458063930273056;0.003777444362640381;-0.01186937093734741;2;-0.09140186011791229;-0.6673787236213684;-0.7332917451858521;-0.09238356351852417;-0.01073880959302187;-0.9956547021865845;-0.09250267595052719;-37.32607269287109;-8.079771041870117;-13.03924560546875;2;86289.59500725;2;0;1556984925.782465;86287.755049;0;0.02111816;90.53377;3232235846;179021379;1;1;0.35;-18.16583;-24.83043;0
1556984926.824812;29;0;0;1556984921.418198;4.403316220399551;-75.14706936697988;969.7328;-1;-1;10;165;-9999;1556984926.819701;-37.57553863525391;-7.914997100830078;-13.02105712890625;98.20275115966797;104.9766006469727;30;86290.64138125001;-0.0157012939453125;-0.9905548095703125;-0.1042022705078125;86290.63433125001;-0.01093360785532031;0.0078848210393976;0.008143147665135287;86290.62734225001;-14.46458435058594;29.85824584960938;-419.9204711914062;86290.63335425001;2.996225990377329;-0.1155535314099288;1.47753228578185;0.0005099298432469368;0.002271896693855524;6.326101720333099e-05;-0.005009263753890991;0.005684375762939453;-0.01168155670166016;2;-0.09139643609523773;-0.6673775911331177;-0.733293890953064;-0.09237909317016602;-0.01073742285370827;-0.9956540465354919;-0.09250768274068832;-37.57553863525391;-7.914997100830078;-13.02105712890625;2;86289.59500725;2;0;1556984925.782465;86287.755049;0;0.02111816;90.53377;3232235846;179021379;1;1;0.35;-18.16583;-24.83043;0
1556984926.833097;30;0;0;1556984921.418198;4.403316220399551;-75.14706936697988;969.7328;-1;-1;10;165;-9999;1556984926.819701;-37.57553863525391;-7.914997100830078;-13.02105712890625;98.20275115966797;104.9766006469727;30;86290.65139025;-0.0153045654296875;-0.9911651611328125;-0.10418701171875;86290.64437125;-0.01120738081538046;0.006939665168528479;0.009317069073642215;86290.64678225;-14.51182556152344;29.88569641113281;-419.8990478515625;86290.64339525001;2.996302802860986;-0.1156222562860403;1.477529363181795;0.0008992105722427368;0.0006254897452890873;0.000584297813475132;-0.004682116210460663;0.004844903945922852;-0.01172494888305664;2;-0.09139598160982132;-0.6673767566680908;-0.7332953810691833;-0.09237387776374817;-0.01074414420872927;-0.9956538081169128;-0.09251008182764053;-37.57553863525391;-7.914997100830078;-13.02105712890625;2;86289.59500725;2;0;1556984925.782465;86287.755049;0;0.02111816;90.53377;3232235846;179021379;1;1;0.35;-18.16583;-24.83043;0
1556984926.843188;31;0;0;1556984921.418198;4.403316220399551;-75.14706936697988;969.7328;-1;-1;10;165;-9999;1556984926.819701;-37.57553863525391;-7.914997100830078;-13.02105712890625;98.20275115966797;104.9766006469727;30;86290.66143125;-0.01495361328125;-0.9916534423828125;-0.1054534912109375;86290.65438125;-0.008489891239063603;0.007023288426756967;0.008331166838094881;86290.64678225;-14.51182556152344;29.88569641113281;-419.8990478515625;86290.65340425;2.996375252490872;-0.1156878121632506;1.47752800467296;0.0002054572105407715;0.0009738313965499401;0.000781637616455555;-0.004553794860839844;0.004417538642883301;-0.01193773746490479;2;-0.09139583259820938;-0.6673764586448669;-0.733296275138855;-0.0923691987991333;-0.01075038965791464;-0.9956536889076233;-0.09251093119382858;-37.60457611083984;-7.875267028808594;-13.01089477539062;2;86289.59500725;2;0;1556984925.782465;86287.755049;0;0.02111816;90.53377;3232235846;179021379;1;1;0.35;-18.16583;-25.52512;0
1556984926.853142;32;0;0;1556984921.418198;4.403316220399551;-75.14706936697988;969.7328;-1;-1;10;165;-9999;1556984926.845678;-37.60457611083984;-7.875267028808594;-13.01089477539062;98.20224761962891;104.9760971069336;30;86290.67144025001;-0.01416015625;-0.991363525390625;-0.104766845703125;86290.66439125;-0.0106912601961231;0.006976683107680581;0.008562861852931775;86290.66625225001;-14.27566528320312;29.93299865722656;-419.9392395019531;86290.66341425001;2.996343727741175;-0.1156599605061411;1.477533083414378;0.001207653433084488;-0.0003778887912631035;-9.157042950391769e-05;-0.004083745181560516;0.004036247730255127;-0.01296287775039673;2;-0.09139618277549744;-0.6673775911331177;-0.7332950234413147;-0.09237148612737656;-0.01074741221964359;-0.9956541061401367;-0.09250777959823608;-37.60457611083984;-7.875267028808594;-13.01089477539062;2;86289.59500725;2;0;1556984925.782465;86287.755049;0;0.02111816;90.53377;3232235846;179021379;1;1;0.35;-18.16583;-25.52512;0
1556984926.863174;33;0;0;1556984921.418198;4.403316220399551;-75.14706936697988;969.7328;-1;-1;10;165;-9999;1556984926.845678;-37.60457611083984;-7.875267028808594;-13.01089477539062;98.20224761962891;104.9760971069336;30;86290.68145025001;-0.016571044921875;-0.9908905029296875;-0.1042327880859375;86290.67443125001;-0.009868609735397625;0.006897853539414235;0.007164169648422159;86290.66625225001;-14.27566528320312;29.93299865722656;-419.9392395019531;86290.67345425001;2.996207280265416;-0.1155198164138759;1.477519855276256;-0.0008107563480734825;-3.434112295508385e-05;-0.001146714668720961;-0.003927439451217651;0.004508078098297119;-0.01217085123062134;2;-0.09139022976160049;-0.6673732399940491;-0.7332992553710938;-0.0923747718334198;-0.01073587313294411;-0.9956529140472412;-0.09252157062292099;-37.49185562133789;-7.881570816040039;-13.05300903320312;2;86289.59500725;2;0;1556984925.782465;86287.755049;0;0.02111816;90.53377;3232235846;179021379;1;1;0.35;-18.16583;-25.88948;0
1556984926.873195;34;0;0;1556984921.418198;4.403316220399551;-75.14706936697988;969.7328;-1;-1;10;165;-9999;1556984926.869522;-37.30695724487305;-7.75773811340332;-12.82864379882812;98.20158386230469;104.9754333496094;30;86290.69146025;-0.01666259765625;-0.9905548095703125;-0.104766845703125;86290.68444125001;-0.01078154135707679;0.008888566454248466;0.008801747402711882;86290.68572325;-13.97517395019531;30.05862426757812;-419.6327514648438;86290.68346425;2.996163168269044;-0.1154648842736548;1.477518368857654;0.001188343390822411;0.001594150438904762;-0.0004824073985219002;-0.00614485889673233;0.004797816276550293;-0.01178711652755737;2;-0.09138479828834534;-0.6673731207847595;-0.7333003282546997;-0.09237262606620789;-0.01073098927736282;-0.9956527352333069;-0.09252387285232544;-37.49185562133789;-7.881570816040039;-13.05300903320312;2;86289.59500725;2;0;1556984925.782465;86287.755049;0;0.02111816;90.53377;3232235846;179021379;1;1;0.35;-18.16583;-25.88948;0
1556984926.896717;35;0;0;1556984921.418198;4.403316220399551;-75.14706936697988;969.7328;-1;-1;10;165;-9999;1556984926.869522;-37.30695724487305;-7.75773811340332;-12.82864379882812;98.20158386230469;104.9754333496094;30;86290.70150025001;-0.0150146484375;-0.9914398193359375;-0.1041259765625;86290.69445125;-0.007505586900170317;0.006942328329618558;0.007854993635188713;86290.68572325;-13.97517395019531;30.05862426757812;-419.6327514648438;86290.69347425;2.996140000509473;-0.1154515279102622;1.477521525152351;0.0009688986465334892;-0.001256230752915144;-0.001227027270942926;-0.005475185811519623;0.00513380765914917;-0.0121268630027771;2;-0.09138765186071396;-0.6673742532730103;-0.7332983613014221;-0.09237662702798843;-0.01072926539927721;-0.9956530332565308;-0.09251980483531952;-37.30695724487305;-7.75773811340332;-12.82864379882812;2;86289.59500725;2;0;1556984925.782465;86287.755049;0;0.02111816;90.53377;3232235846;179021379;1;1;0.35;-18.16583;-25.97166;0
1556984926.899381;36;0;0;1556984921.418198;4.403316220399551;-75.14706936697988;969.7328;-1;-1;10;165;-9999;1556984926.896988;-37.31811141967773;-7.89434814453125;-12.88421630859375;98.20079040527344;104.9746398925781;30;86290.71151025001;-0.01568603515625;-0.991607666015625;-0.104766845703125;86290.70446025001;-0.01048726205662303;0.008920790703438423;0.009113603566360162;86290.70519325;-13.93154907226562;29.92086791992188;-419.6726684570312;86290.70348425;2.996140872666205;-0.1154480805026345;1.477513378677476;-0.0006574783474206924;0.0006922394968569279;-0.000920263584703207;-0.004559092223644257;0.004095494747161865;-0.0116308331489563;2;-0.09138603508472443;-0.6673715710639954;-0.7333011627197266;-0.09237517416477203;-0.01072984095662832;-0.9956523180007935;-0.09252756088972092;-37.30695724487305;-7.75773811340332;-12.82864379882812;2;86289.59500725;2;0;1556984925.782465;86287.755049;0;0.02111816;90.53377;3232235846;179021379;1;1;0.35;-18.16583;-25.97166;0
1556984926.903235;37;0;0;1556984921.418198;4.403316220399551;-75.14706936697988;969.7328;-1;-1;10;165;-9999;1556984926.896988;-37.31811141967773;-7.89434814453125;-12.88421630859375;98.20079040527344;104.9746398925781;30;86290.72152025001;-0.0150604248046875;-0.9908599853515625;-0.1049041748046875;86290.71450125001;-0.008814264259835254;0.008067513890177036;0.007493868991373968;86290.70519325;-13.93154907226562;29.92086791992188;-419.6726684570312;86290.71352425001;2.996194147537128;-0.1154856038780869;1.477515287265551;0.0008288314566016197;0.001593186985701323;0.0005716392770409584;-0.004799827933311462;0.004202306270599365;-0.01247096061706543;2;-0.09138203412294388;-0.6673725247383118;-0.7333017587661743;-0.09236818552017212;-0.01073323469609022;-0.9956524968147278;-0.09252647310495377;-37.31811141967773;-7.89434814453125;-12.88421630859375;2;86289.59500725;2;0;1556984925.782465;86287.755049;0;0.02111816;90.53377;3232235846;179021379;1;1;0.35;-18.16583;-25.97166;0
1556984926.91344;38;0;0;1556984921.418198;4.403316220399551;-75.14706936697988;969.7328;-1;-1;10;165;-9999;1556984926.896988;-37.31811141967773;-7.89434814453125;-12.88421630859375;98.20079040527344;104.9746398925781;30;86290.73156025;-0.015289306640625;-0.9908599853515625;-0.1048583984375;86290.72451025;-0.01104146587946852;0.007817176747709587;0.008322112090388611;86290.72463225;-14.16610717773438;29.78996276855469;-419.8095703125;86290.72353425001;2.996283570005909;-0.115576780759844;1.477508879506476;-0.0003448193892836571;-0.0009600264020264149;0.001495799049735069;-0.004668742418289185;0.004934132099151611;-0.01237547397613525;2;-0.09138557314872742;-0.6673705577850342;-0.7333033084869385;-0.0923658087849617;-0.01074224337935448;-0.99565190076828;-0.09253042936325073;-37.31811141967773;-7.89434814453125;-12.88421630859375;2;86289.59500725;2;0;1556984925.782465;86287.755049;0;0.02111816;90.53377;3232235846;179021379;1;1;0.35;-18.16583;-26.32523;0
1556984926.923257;39;0;0;1556984921.418198;4.403316220399551;-75.14706936697988;969.7328;-1;-1;10;165;-9999;1556984926.919631;-37.44724655151367;-8.022375106811523;-12.98599243164062;98.20110321044922;104.9749526977539;30;86290.74157025;-0.0149383544921875;-0.9915618896484375;-0.1046142578125;86290.73452025;-0.009072324569463932;0.008980179195747191;0.01000043620935655;86290.72463225;-14.16610717773438;29.78996276855469;-419.8095703125;86290.73354425;2.996247152307131;-0.1155439866657152;1.477502661924395;-0.0004228502511978149;-0.0005991682410240173;-0.001092260703444481;-0.004320114850997925;0.004689395427703857;-0.01243001222610474;2;-0.09138565510511398;-0.6673681139945984;-0.7333052158355713;-0.0923682376742363;-0.01073992159217596;-0.9956513047218323;-0.09253692626953125;-37.44724655151367;-8.022375106811523;-12.98599243164062;2;86289.59500725;2;0;1556984925.782465;86287.755049;0;0.02111816;90.53377;3232235846;179021379;1;1;0.35;-18.16583;-26.32523;0
1556984926.933334;40;0;0;1556984921.418198;4.403316220399551;-75.14706936697988;969.7328;-1;-1;10;165;-9999;1556984926.919631;-37.44724655151367;-8.022375106811523;-12.98599243164062;98.20110321044922;104.9749526977539;30;86290.75157925001;-0.015594482421875;-0.9915313720703125;-0.1043548583984375;86290.74453025;-0.008298143640577899;0.004287156722809557;0.00947925558402804;86290.74410325001;-14.30198669433594;29.8255615234375;-419.8075561523438;86290.74355325001;2.996359563089576;-0.1156664323789893;1.477489907276338;-0.00254098791629076;-0.0001735296100378036;0.001825281418859959;-0.00432247668504715;0.00384896993637085;-0.01197540760040283;2;-0.09139294922351837;-0.6673625707626343;-0.7333094477653503;-0.09236793965101242;-0.01075281482189894;-0.9956501126289368;-0.09254905581474304;-37.52318954467773;-7.957109451293945;-12.93716430664062;2;86289.59500725;2;0;1556984925.782465;86287.755049;0;0.02111816;90.53377;3232235846;179021379;1;1;0.35;-18.16583;-26.58691;0
1556984926.943164;41;0;0;1556984921.418198;4.403316220399551;-75.14706936697988;969.7328;-1;-1;10;165;-9999;1556984926.919631;-37.44724655151367;-8.022375106811523;-12.98599243164062;98.20110321044922;104.9749526977539;30;86290.76158925;-0.015655517578125;-0.99163818359375;-0.1039581298828125;86290.75457025001;-0.009623865231219343;0.007035006335553316;0.007465905799928136;86290.74410325001;-14.30198669433594;29.8255615234375;-419.8075561523438;86290.75359425001;2.996238339392661;-0.1155482803236437;1.477484381877213;-0.0006868951022624969;0.001254723407328129;-0.001993958372622728;-0.004897408187389374;0.004138410091400146;-0.01193851232528687;2;-0.09139003604650497;-0.6673606038093567;-0.7333109378814697;-0.09237296879291534;-0.01074246596544981;-0.9956495761871338;-0.09255537390708923;-37.52318954467773;-7.957109451293945;-12.93716430664062;2;86289.59500725;2;0;1556984925.782465;86287.755049;0;0.02111816;90.53377;3232235846;179021379;1;1;0.35;-18.16583;-26.58691;0
1556984926.977774;42;0;0;1556984921.418198;4.403316220399551;-75.14706936697988;969.7328;-1;-1;10;165;-9999;1556984926.969859;-37.37288284301758;-8.051010131835938;-12.93240356445312;98.20181274414062;104.9756622314453;30;86290.77163025;-0.0154876708984375;-0.991485595703125;-0.1043548583984375;86290.76458025;-0.007735950334462171;0.008646751427269271;0.009559949365057441;86290.76357325001;-14.405517578125;29.50881958007812;-420.0509643554688;86290.76360325;2.996237431493892;-0.1155415894435236;1.477483186873155;0.000437714159488678;0.0002710605040192604;-0.0003910651430487633;-0.004836916923522949;0.003863811492919922;-0.01146489381790161;2;-0.09138787537813187;-0.6673606038093567;-0.7333114147186279;-0.09237106144428253;-0.01074192952364683;-0.995649516582489;-0.09255616366863251;-37.57003021240234;-8.181987762451172;-13.12432861328125;2;86289.59500725;2;0;1556984925.782465;86287.755049;0;0.02111816;90.53377;3232235846;179021379;1;1;0.35;-18.16583;-25.9548;0
1556984926.981363;43;0;0;1556984921.418198;4.403316220399551;-75.14706936697988;969.7328;-1;-1;10;165;-9999;1556984926.969859;-37.37288284301758;-8.051010131835938;-12.93240356445312;98.20181274414062;104.9756622314453;30;86290.78163925001;-0.0157470703125;-0.9912261962890625;-0.10394287109375;86290.77459025;-0.007332481429315167;0.006859237703608086;0.007506119532388333;86290.76357325001;-14.405517578125;29.50881958007812;-420.0509643554688;86290.77361325;2.996269379118144;-0.1155775104087266;1.477492160179204;0.001777816563844681;-0.00123575609177351;-0.0004898682236671448;-0.004773534834384918;0.004215598106384277;-0.01202315092086792;2;-0.0913904532790184;-0.6673635840415955;-0.7333083748817444;-0.09237131476402283;-0.01074426621198654;-0.9956503510475159;-0.09254726022481918;-37.57003021240234;-8.181987762451172;-13.12432861328125;2;86289.59500725;2;0;1556984925.782465;86287.755049;0;0.02111816;90.53377;3232235846;179021379;1;1;0.35;-18.16583;-25.9548;0
1556984926.984437;44;0;0;1556984921.418198;4.403316220399551;-75.14706936697988;969.7328;-1;-1;10;165;-9999;1556984926.969859;-37.37288284301758;-8.051010131835938;-12.93240356445312;98.20181274414062;104.9756622314453;30;86290.79164925001;-0.0157318115234375;-0.9914398193359375;-0.1040496826171875;86290.78463025001;-0.007822236753780739;0.007219563399095807;0.00801052224284934;86290.78304325;-14.08265686035156;29.6981201171875;-419.7333374023438;86290.78365325001;2.996338334549705;-0.1156496671432742;1.477493176437117;-0.0004347497597336769;-0.000519078690558672;0.001036603935062885;-0.004980519413948059;0.004536092281341553;-0.01120024919509888;2;-0.09139391034841537;-0.6673635244369507;-0.7333081960678101;-0.09237012267112732;-0.01075090561062098;-0.9956504106521606;-0.09254615753889084;-37.37288284301758;-8.051010131835938;-12.93240356445312;2;86289.59500725;2;0;1556984925.782465;86287.755049;0;0.02111816;90.53377;3232235846;179021379;1;1;0.35;-18.16583;-25.9548;0
1556984926.986876;45;0;0;1556984921.418198;4.403316220399551;-75.14706936697988;969.7328;-1;-1;10;165;-9999;1556984926.969859;-37.37288284301758;-8.051010131835938;-12.93240356445312;98.20181274414062;104.9756622314453;30;86290.80168925;-0.015869140625;-0.9912567138671875;-0.1044158935546875;86290.79464025001;-0.008905877001333981;0.007492271094719921;0.008168181379382031;86290.80248325001;-14.10377502441406;29.75732421875;-419.8860168457031;86290.79366325001;2.996424364242154;-0.1157304675029561;1.477499560435895;0.0008377088233828545;0.001104117836803198;0.001056577078998089;-0.00504998117685318;0.004307806491851807;-0.01145076751708984;2;-0.09139487892389297;-0.6673657894134521;-0.7333066463470459;-0.09236554056406021;-0.01075774058699608;-0.9956510066986084;-0.09253975749015808;-37.37288284301758;-8.051010131835938;-12.93240356445312;2;86289.59500725;2;0;1556984925.782465;86287.755049;0;0.02111816;90.53377;3232235846;179021379;1;1;0.35;-18.16583;-25.9548;0
1556984926.993394;46;0;0;1556984921.418198;4.403316220399551;-75.14706936697988;969.7328;-1;-1;10;165;-9999;1556984926.969859;-37.37288284301758;-8.051010131835938;-12.93240356445312;98.20181274414062;104.9756622314453;30;86290.81169925;-0.0153961181640625;-0.9908294677734375;-0.10467529296875;86290.80465025001;-0.009126919371810557;0.006322344427848112;0.007818774644363636;86290.80248325001;-14.10377502441406;29.75732421875;-419.8860168457031;86290.80367325;2.996326018184982;-0.1156283884794135;1.477492129344973;-0.0008135195821523666;0.001865323632955551;-0.001486327964812517;-0.004890665411949158;0.004291892051696777;-0.01191478967666626;2;-0.0913902148604393;-0.6673630475997925;-0.7333095073699951;-0.09236757457256317;-0.01074921432882547;-0.9956502914428711;-0.09254878014326096;-37.38842010498047;-8.032541275024414;-13.09121704101562;2;86289.59500725;2;0;1556984925.782465;86287.755049;0;0.02111816;90.53377;3232235846;179021379;1;1;0.35;-18.16583;-25.9548;0
1556984927.003291;47;0;0;1556984921.418198;4.403316220399551;-75.14706936697988;969.7328;-1;-1;10;165;-9999;1556984926.996339;-37.38842010498047;-8.032541275024414;-13.09121704101562;98.20125579833984;104.9751052856445;30;86290.82170925;-0.015533447265625;-0.9908447265625;-0.1044921875;86290.81465925001;-0.008702677810160934;0.007348194079746634;0.008395082704256783;86290.82195325001;-13.96237182617188;29.94743347167969;-419.8366394042969;86290.81368325;2.996390446064251;-0.115688835887352;1.477482380014237;-0.0005631819367408752;0.0007595792412757874;0.001148071140050888;-0.004731521010398865;0.004855811595916748;-0.01221269369125366;2;-0.09139080345630646;-0.6673601269721985;-0.7333124279975891;-0.0923641175031662;-0.01075576525181532;-0.9956493973731995;-0.09255636483430862;-37.38842010498047;-8.032541275024414;-13.09121704101562;2;86289.59500725;2;0;1556984925.782465;86287.755049;0;0.02111816;90.53377;3232235846;179021379;1;1;0.35;-18.16583;-24.87038;0
1556984927.013459;48;0;0;1556984921.418198;4.403316220399551;-75.14706936697988;969.7328;-1;-1;10;165;-9999;1556984926.996339;-37.38842010498047;-8.032541275024414;-13.09121704101562;98.20125579833984;104.9751052856445;30;86290.83171925001;-0.015167236328125;-0.9909820556640625;-0.104156494140625;86290.82470025;-0.008198541415808934;0.007709052407452371;0.009242500563119996;86290.82195325001;-13.96237182617188;29.94743347167969;-419.8366394042969;86290.82372325001;2.996421632184075;-0.1157108369368056;1.47748257044385;0.0009724171832203865;0.0007625436410307884;-0.0003170296549797058;-0.004805855453014374;0.004825294017791748;-0.01175588369369507;2;-0.09138846397399902;-0.667360782623291;-0.7333126068115234;-0.09236001223325729;-0.01075772568583488;-0.9956494569778442;-0.09255547076463699;-37.29994964599609;-7.8480224609375;-13.00314331054688;2;86289.59500725;2;0;1556984925.782465;86287.755049;0;0.02111816;90.53377;3232235846;179021379;1;1;0.35;-18.16583;-24.87038;0
1556984927.023398;49;0;0;1556984921.418198;4.403316220399551;-75.14706936697988;969.7328;-1;-1;10;165;-9999;1556984927.020058;-37.29994964599609;-7.8480224609375;-13.00314331054688;98.20088195800781;104.9747314453125;30;86290.84175925;-0.015960693359375;-0.992095947265625;-0.1046142578125;86290.83470925;-0.009546633559607045;0.006796653417991224;0.0106979180988483;86290.84142325001;-14.30337524414062;29.84068298339844;-419.8345336914062;86290.83373325001;2.996499359838013;-0.1157887898722449;1.477485881445729;0.002162583637982607;4.641944542527199e-05;8.910242468118668e-05;-0.004509203135967255;0.004398643970489502;-0.01171517372131348;2;-0.09139113128185272;-0.6673622727394104;-0.7333111763000488;-0.09235749393701553;-0.01076446194201708;-0.9956497550010681;-0.09255051612854004;-37.29994964599609;-7.8480224609375;-13.00314331054688;2;86289.59500725;2;0;1556984925.782465;86287.755049;0;0.02111816;90.53377;3232235846;179021379;1;1;0.35;-18.16583;-25.50848;0
1556984927.033917;50;0;0;1556984921.418198;4.403316220399551;-75.14706936697988;969.7328;-1;-1;10;165;-9999;1556984927.020058;-37.29994964599609;-7.8480224609375;-13.00314331054688;98.20088195800781;104.9747314453125;30;86290.85176925;-0.015777587890625;-0.9915313720703125;-0.104339599609375;86290.84471925;-0.01059964745462438;0.007019826317339864;0.01034957662826594;86290.84142325001;-14.30337524414062;29.84068298339844;-419.8345336914062;86290.84374325001;2.996694301390159;-0.1159842669983798;1.47747208088355;-0.0006312718614935875;-0.0001593055203557014;0.001319197006523609;-0.005252376198768616;0.003695428371429443;-0.01199281215667725;2;-0.09139765799045563;-0.6673567891120911;-0.73331618309021;-0.09235130250453949;-0.01078422553837299;-0.9956484436988831;-0.09256276488304138;-37.5010871887207;-7.885835647583008;-12.99569702148438;2;86289.59500725;2;0;1556984925.782465;86287.755049;0;0.02111816;90.53377;3232235846;179021379;1;1;0.35;-18.16583;-25.50848;0
1556984927.059442;51;0;0;1556984921.418198;4.403316220399551;-75.14706936697988;969.7328;-1;-1;10;165;-9999;1556984927.046929;-37.54186630249023;-7.877418518066406;-13.14559936523438;98.20100402832031;104.974853515625;30;86290.86177825001;-0.015625;-0.9916839599609375;-0.105194091796875;86290.85475925001;-0.01038233350967391;0.007363640414069094;0.007948470589450495;86290.86086325001;-14.36480712890625;29.88143920898438;-420.0777282714844;86290.85378325;2.996809845585018;-0.1160948572937934;1.477462779115324;0.001118424348533154;0.0005600140430033207;0.0009697908535599709;-0.004752688109874725;0.004137039184570312;-0.01193821430206299;2;-0.09139958769083023;-0.6673532128334045;-0.7333199381828308;-0.09234588593244553;-0.01079563237726688;-0.9956476092338562;-0.09257160872220993;-37.5010871887207;-7.885835647583008;-12.99569702148438;2;86289.59500725;2;0;1556984925.782465;86287.755049;0;0.02111816;90.53377;3232235846;179021379;1;1;0.35;-18.16583;-25.91798;0
1556984927.061842;52;0;0;1556984921.418198;4.403316220399551;-75.14706936697988;969.7328;-1;-1;10;165;-9999;1556984927.046929;-37.54186630249023;-7.877418518066406;-13.14559936523438;98.20100402832031;104.974853515625;30;86290.87178825001;-0.0148468017578125;-0.9910430908203125;-0.105316162109375;86290.86476925001;-0.008523180752689595;0.00497318701961397;0.009700297954504618;86290.86086325001;-14.36480712890625;29.88143920898438;-420.0777282714844;86290.86379325;2.99671999898195;-0.1160122468902985;1.477454322779064;-0.0003263391554355621;-0.0002445490099489689;-0.001439416781067848;-0.004850953817367554;0.004059970378875732;-0.01267701387405396;2;-0.09139921516180038;-0.6673499345779419;-0.7333222627639771;-0.0923512801527977;-0.01078891661018133;-0.9956467747688293;-0.09258049726486206;-37.54186630249023;-7.877418518066406;-13.14559936523438;2;86289.59500725;2;0;1556984925.782465;86287.755049;0;0.02111816;90.53377;3232235846;179021379;1;1;0.35;-18.16583;-25.91798;0
1556984927.064761;53;0;0;1556984921.418198;4.403316220399551;-75.14706936697988;969.7328;-1;-1;10;165;-9999;1556984927.046929;-37.54186630249023;-7.877418518066406;-13.14559936523438;98.20100402832031;104.974853515625;30;86290.88182925001;-0.0155487060546875;-0.9903411865234375;-0.104766845703125;86290.87477925001;-0.01054372107173271;0.008388691117640592;0.007128749605924104;86290.88033325001;-14.43511962890625;29.98184204101562;-420.029052734375;86290.87380225;2.996692425285546;-0.1159839252388823;1.47744987567629;-0.0002483082935214043;0.0005802321247756481;0.0003528911620378494;-0.004135854542255402;0.004715681076049805;-0.01282435655593872;2;-0.09139800071716309;-0.6673481464385986;-0.7333239912986755;-0.09235196560621262;-0.0107868667691946;-0.9956463575363159;-0.09258571267127991;-37.54186630249023;-7.877418518066406;-13.14559936523438;2;86289.59500725;2;0;1556984925.782465;86287.755049;0;0.02111816;90.53377;3232235846;179021379;1;1;0.35;-18.16583;-25.91798;0
1556984927.073522;54;0;0;1556984921.418198;4.403316220399551;-75.14706936697988;969.7328;-1;-1;10;165;-9999;1556984927.046929;-37.54186630249023;-7.877418518066406;-13.14559936523438;98.20100402832031;104.974853515625;30;86290.89183825001;-0.0150909423828125;-0.9907379150390625;-0.1041717529296875;86290.88478925001;-0.009267800593475749;0.007485080559776707;0.008733836794914861;86290.88033325001;-14.43511962890625;29.98184204101562;-420.029052734375;86290.88381225;2.996641188091725;-0.1159196011751148;1.477440603369391;-0.0002524508163332939;0.001721990760415792;-8.541904389858246e-05;-0.004873163998126984;0.005172610282897949;-0.01200592517852783;2;-0.09139144420623779;-0.667345404624939;-0.7333276271820068;-0.09234931319952011;-0.01078196242451668;-0.9956455230712891;-0.0925954282283783;-37.5853271484375;-7.842071533203125;-13.11917114257812;2;86289.59500725;2;0;1556984925.782465;86287.755049;0;0.02111816;90.53377;3232235846;179021379;1;1;0.35;-18.16583;-26.03073;0
1556984927.083528;55;0;0;1556984921.418198;4.403316220399551;-75.14706936697988;969.7328;-1;-1;10;165;-9999;1556984927.072568;-37.5853271484375;-7.842071533203125;-13.11917114257812;98.20018005371094;104.9740295410156;30;86290.90184825001;-0.0158843994140625;-0.99078369140625;-0.1037445068359375;86290.89482925;-0.007413974158671591;0.00695617676728697;0.009658220009281366;86290.89980325001;-14.19911193847656;29.81669616699219;-419.7471923828125;86290.89385225001;2.996769320703162;-0.1160443503704522;1.477424581111978;-0.002380583435297012;-0.0001747128553688526;0.001512744463980198;-0.004112184047698975;0.004896402359008789;-0.01171755790710449;2;-0.09139431267976761;-0.6673398613929749;-0.7333329319953918;-0.09234398603439331;-0.01079527288675308;-0.9956440329551697;-0.09260917454957962;-37.5853271484375;-7.842071533203125;-13.11917114257812;2;86289.59500725;2;0;1556984925.782465;86287.755049;0;0.02111816;90.53377;3232235846;179021379;1;1;0.35;-18.16583;-26.03073;0
1556984927.093585;56;0;0;1556984921.418198;4.403316220399551;-75.14706936697988;969.7328;-1;-1;10;165;-9999;1556984927.072568;-37.5853271484375;-7.842071533203125;-13.11917114257812;98.20018005371094;104.9740295410156;30;86290.91188825;-0.0159149169921875;-0.99066162109375;-0.1034393310546875;86290.90483925001;-0.00818762245533961;0.006305300196871605;0.007129015922033113;86290.89980325001;-14.19911193847656;29.81669616699219;-419.7471923828125;86290.90386225001;2.996815788579339;-0.1160971700289333;1.477435849469173;0.00198016595095396;-0.001166936941444874;0.0004475116729736328;-0.005207300186157227;0.004866957664489746;-0.01119589805603027;2;-0.09139825403690338;-0.6673439741134644;-0.7333285808563232;-0.09234452247619629;-0.01079878304153681;-0.9956450462341309;-0.09259676188230515;-37.41680145263672;-7.933683395385742;-12.89987182617188;2;86289.59500725;2;0;1556984925.782465;86287.755049;0;0.02111816;90.53377;3232235846;179021379;1;1;0.35;-18.16583;-26.246;0
1556984927.103537;57;0;0;1556984921.418198;4.403316220399551;-75.14706936697988;969.7328;-1;-1;10;165;-9999;1556984927.096621;-37.41680145263672;-7.933683395385742;-12.89987182617188;98.20104217529297;104.9748916625977;30;86290.92189825;-0.0150299072265625;-0.991607666015625;-0.10400390625;86290.91484925001;-0.009261675322968567;0.007975102200351287;0.008085623385589574;86290.91927425;-14.12736511230469;30.01751708984375;-419.7955322265625;86290.91387225001;2.996923347650951;-0.1162152468092504;1.4774385051499;0.0008637690916657448;-0.002266822382807732;0.002197740599513054;-0.004952378571033478;0.004836440086364746;-0.01103043556213379;2;-0.09140568226575851;-0.6673439145088196;-0.7333278059959412;-0.0923445075750351;-0.01080956682562828;-0.9956453442573547;-0.0925941988825798;-37.41680145263672;-7.933683395385742;-12.89987182617188;2;86289.59500725;2;0;1556984925.782465;86287.755049;0;0.02111816;90.53377;3232235846;179021379;1;1;0.35;-18.16583;-26.246;0
1556984927.129853;58;0;0;1556984921.418198;4.403316220399551;-75.14706936697988;969.7328;-1;-1;10;165;-9999;1556984927.120175;-37.32602691650391;-8.087953567504883;-12.833984375;98.20027160644531;104.97412109375;30;86290.93190825;-0.0153045654296875;-0.9921112060546875;-0.10430908203125;86290.92488925;-0.008956210745936478;0.009836651802316675;0.008913866484604217;86290.91927425;-14.12736511230469;30.01751708984375;-419.7955322265625;86290.92391225;2.997005178061463;-0.1162858179714713;1.477441287223634;0.001377408392727375;0.000428137369453907;0.001450642943382263;-0.004076391458511353;0.004012763500213623;-0.01155257225036621;2;-0.0914042741060257;-0.6673453450202942;-0.7333275079727173;-0.09233804792165756;-0.01081580389291048;-0.9956455826759338;-0.09259089827537537;-37.43781280517578;-7.79057502746582;-12.94546508789062;2;86289.59500725;2;0;1556984925.782465;86287.755049;0;0.02111816;90.53377;3232235846;179021379;1;1;0.35;-18.16583;-23.86769;0
1556984927.132478;59;0;0;1556984921.418198;4.403316220399551;-75.14706936697988;969.7328;-1;-1;10;165;-9999;1556984927.120175;-37.32602691650391;-8.087953567504883;-12.833984375;98.20027160644531;104.97412109375;30;86290.94191825;-0.0159759521484375;-0.9913482666015625;-0.1046905517578125;86290.93489925;-0.01005636259224821;0.006064017802110425;0.008104531829329138;86290.93871325001;-14.01385498046875;29.63987731933594;-419.6051025390625;86290.93392225;2.996995870578108;-0.1162736088453798;1.47744517482051;0.0008101556450128555;0.0002315961755812168;-8.094124495983124e-05;-0.004688240587711334;0.003555357456207275;-0.01166236400604248;2;-0.09140293300151825;-0.6673466563224792;-0.7333266139030457;-0.09233739227056503;-0.0108143063262105;-0.9956459403038025;-0.09258788824081421;-37.43781280517578;-7.79057502746582;-12.94546508789062;2;86289.59500725;2;0;1556984925.782465;86287.755049;0;0.02111816;90.53377;3232235846;179021379;1;1;0.35;-18.16583;-23.86769;0
