loggingTime;loggingSample;identifierForVendor;deviceID;locationTimestamp_since1970;locationLatitude;locationLongitude;locationAltitude;locationSpeed;locationCourse;locationVerticalAccuracy;locationHorizontalAccuracy;locationFloor;locationHeadingTimestamp_since1970;locationHeadingX;locationHeadingY;locationHeadingZ;locationTrueHeading;locationMagneticHeading;locationHeadingAccuracy;accelerometerTimestamp_sinceReboot;accelerometerAccelerationX;accelerometerAccelerationY;accelerometerAccelerationZ;gyroTimestamp_sinceReboot;gyroRotationX;gyroRotationY;gyroRotationZ;magnetometerTimestamp_sinceReboot;magnetometerX;magnetometerY;magnetometerZ;motionTimestamp_sinceReboot;motionYaw;motionRoll;motionPitch;motionRotationRateX;motionRotationRateY;motionRotationRateZ;motionUserAccelerationX;motionUserAccelerationY;motionUserAccelerationZ;motionAttitudeReferenceFrame;motionQuaternionX;motionQuaternionY;motionQuaternionZ;motionQuaternionW;motionGravityX;motionGravityY;motionGravityZ;motionMagneticFieldX;motionMagneticFieldY;motionMagneticFieldZ;motionMagneticFieldCalibrationAccuracy;activityTimestamp_sinceReboot;activity;activityActivityConfidence;activityActivityStartDate;altimeterTimestamp_sinceReboot;altimeterReset;altimeterRelativeAltitude;altimeterPressure;IP_en0;IP_pdp_ip0;deviceOrientation;batteryState;batteryLevel;avAudioRecorderPeakPower;avAudioRecorderAveragePower;label
1556984808.861465;1;0;0;1556984803.98652;4.403301892085986;-75.1471950018358;963.3562;-1;-1;10;65;-9999;1556984808.832406;27.99913787841797;-2.702236175537109;29.4224853515625;322.9624938964844;329.736328125;125;86172.6665525;0.0148162841796875;0.99298095703125;-0.06085205078125;86172.65950350001;-0.00492951117773667;0.00833249841863992;0.009741310635291838;86172.66362250001;49.98858642578125;50.97247314453125;-414.3927612304688;86172.6585265;2.242405139627064;0.1431268029066271;-1.494374159901522;-0.005236227065324783;-0.001465459819883108;-0.0008652764372527599;0.005421459674835205;-0.003326177597045898;0.008455097675323486;2;-0.3418300151824951;-0.5876808166503906;0.6378916501998901;0.3617702722549438;0.01089012715965509;0.9970812201499939;-0.07556699961423874;27.99913787841797;-2.702236175537109;29.4224853515625;2;86170.0171615;2;0;1556984806.204619;86169.65317600001;0;0.1453247;90.53242;3232235846;179021379;2;1;0.37;-16.27449;-27.60798;0
1556984808.862917;2;0;0;1556984803.98652;4.403301892085986;-75.1471950018358;963.3562;-1;-1;10;65;-9999;1556984808.832406;27.99913787841797;-2.702236175537109;29.4224853515625;322.9624938964844;329.736328125;125;86172.67656250001;0.01702880859375;0.9931182861328125;-0.0751495361328125;86172.6695435;-0.009757023285723304;0.008321046825952579;0.009951167729190082;86172.66362250001;49.98858642578125;50.97247314453125;-414.3927612304688;86172.66856650001;2.242561265043953;0.1433144066964435;-1.494331653322823;0.006192645989358425;0.005907284561544657;0.001187499612569809;0.003890693187713623;-0.004253685474395752;0.01433873176574707;2;-0.3418381214141846;-0.5876592993736267;0.6379011869430542;0.3617807030677795;0.01091029774397612;0.997078001499176;-0.07560649514198303;27.64997863769531;-2.721721649169922;29.71279907226562;2;86170.0171615;2;0;1556984806.204619;86169.65317600001;0;0.1453247;90.53242;3232235846;179021379;2;1;0.37;-16.27449;-27.60798;0
1556984808.869538;3;0;0;1556984803.98652;4.403301892085986;-75.1471950018358;963.3562;-1;-1;10;65;-9999;1556984808.863863;27.64997863769531;-2.721721649169922;29.71279907226562;322.9631958007812;329.7370300292969;125;86172.68660250001;0.0184478759765625;0.9941253662109375;-0.0789794921875;86172.6795535;-0.01346946984529376;0.003809119307140335;0.005586779334768226;86172.6830935;50.07469177246094;50.94749450683594;-414.326904296875;86172.67857650001;2.242598825672913;0.1433368441554463;-1.49436412776541;-0.004629375413060188;-0.002241455484181643;-0.001001885160803795;0.00705188512802124;-0.003599762916564941;-0.003528714179992676;2;-0.3418388366699219;-0.58767169713974;0.6378943920135498;0.3617721199989319;0.0109076825901866;0.9970805048942566;-0.07557637244462967;27.64997863769531;-2.721721649169922;29.71279907226562;2;86170.0171615;2;0;1556984806.204619;86169.65317600001;0;0.1453247;90.53242;3232235846;179021379;2;1;0.37;-16.27449;-27.60798;0
1556984808.882403;4;0;0;1556984803.98652;4.403301892085986;-75.1471950018358;963.3562;-1;-1;10;65;-9999;1556984808.863863;27.64997863769531;-2.721721649169922;29.71279907226562;322.9631958007812;329.7370300292969;125;86172.6966125;0.014617919921875;0.9931793212890625;-0.0643157958984375;86172.6895625;-0.007739678759988282;0.01020656487772868;0.009467803991340699;86172.6830935;50.07469177246094;50.94749450683594;-414.326904296875;86172.68858650001;2.242658091293685;0.1433935516739825;-1.494371202009924;-0.0002899803221225739;-0.001060004811733961;0.0006831502541899681;0.006621569395065308;-0.003203630447387695;0.0001854300498962402;2;-0.341840386390686;-0.587674617767334;0.6378928422927856;0.3617684841156006;0.01091075967997313;0.9970810413360596;-0.07556738704442978;27.76093673706055;-2.728336334228516;29.76943969726562;2;86170.0171615;2;0;1556984806.204619;86169.65317600001;0;0.1453247;90.53242;3232235846;179021379;2;1;0.37;-16.27449;-28.28597;0
1556984808.889845;5;0;0;1556984803.98652;4.403301892085986;-75.1471950018358;963.3562;-1;-1;10;65;-9999;1556984808.884766;27.76093673706055;-2.728336334228516;29.76943969726562;322.9634704589844;329.7373046875;125;86172.7066225;0.0183258056640625;0.9932708740234375;-0.0759124755859375;86172.6995725;-0.01014185006323975;0.006237389589074584;0.008846222192916206;86172.7025635;49.81355285644531;50.91879272460938;-414.7202758789062;86172.69859650001;2.24268494932726;0.1434397462096011;-1.494352355002284;0.002598484046757221;0.002423676662147045;-0.0009504323825240135;0.004234880208969116;-0.003949820995330811;0.01054990291595459;2;-0.3418447077274323;-0.587664008140564;0.6378960013389587;0.3617761731147766;0.01091707218438387;0.997079610824585;-0.07558641582727432;27.76093673706055;-2.728336334228516;29.76943969726562;2;86170.0171615;2;0;1556984806.204619;86169.65317600001;0;0.1453247;90.53242;3232235846;179021379;2;1;0.37;-16.27449;-28.28597;0
1556984808.899602;6;0;0;1556984803.98652;4.403301892085986;-75.1471950018358;963.3562;-1;-1;10;65;-9999;1556984808.884766;27.76093673706055;-2.728336334228516;29.76943969726562;322.9634704589844;329.7373046875;125;86172.71663150001;0.0175323486328125;0.99359130859375;-0.07342529296875;86172.70961250001;-0.01033066818452637;0.004293015677207732;0.007928230565165893;86172.7025635;49.81355285644531;50.91879272460938;-414.7202758789062;86172.7086365;2.242623408039413;0.1433560776756279;-1.494365492531689;-0.002535354346036911;-0.003097806591540575;-0.002092116046696901;0.00793573260307312;-0.003584623336791992;-0.002173066139221191;2;-0.3418378829956055;-0.5876732468605042;0.6378949284553528;0.3617694675922394;0.01090882811695337;0.9970805644989014;-0.07557403296232224;27.64485168457031;-2.765819549560547;29.49142456054688;2;86170.0171615;2;0;1556984806.204619;86169.65317600001;0;0.1453247;90.53242;3232235846;179021379;2;1;0.37;-16.27449;-28.28597;0
1556984808.90967;7;0;0;1556984803.98652;4.403301892085986;-75.1471950018358;963.3562;-1;-1;10;65;-9999;1556984808.905867;27.69704437255859;-2.707424163818359;29.31918334960938;322.9624938964844;329.736328125;125;86172.72667250001;0.014556884765625;0.9936065673828125;-0.067291259765625;86172.71962250001;-0.006037918823427649;0.008759935773597639;0.009068063511719807;86172.72200350001;49.91435241699219;50.99888610839844;-414.8858032226562;86172.71864650001;2.242639043095368;0.1433707295829225;-1.494359591878226;-0.0006261337548494339;0.0001975889317691326;0.000113779678940773;0.005675613880157471;-0.003477156162261963;0.004545986652374268;2;-0.3418371081352234;-0.5876715779304504;0.6378969550132751;0.3617692589759827;0.01091067865490913;0.9970801472663879;-0.07557901740074158;27.64485168457031;-2.765819549560547;29.49142456054688;2;86170.0171615;2;0;1556984806.204619;86169.65317600001;0;0.1453247;90.53242;3232235846;179021379;2;1;0.37;-16.27449;-28.70078;0
1556984808.919606;8;0;0;1556984803.98652;4.403301892085986;-75.1471950018358;963.3562;-1;-1;10;65;-9999;1556984808.905867;27.69704437255859;-2.707424163818359;29.31918334960938;322.9624938964844;329.736328125;125;86172.73668250001;0.017333984375;0.9939422607421875;-0.076324462890625;86172.72963250001;-0.01200233440076911;0.006017146166925031;0.006588926852965043;86172.72200350001;49.91435241699219;50.99888610839844;-414.8858032226562;86172.7286555;2.24261859638938;0.1433596735984041;-1.494335676932828;0.003575069364160299;0.001422167290002108;5.580577999353409e-05;0.003918230533599854;-0.003536343574523926;0.00673675537109375;2;-0.3418363332748413;-0.5876618027687073;0.6379027962684631;0.3617756068706512;0.01091329474002123;0.9970782995223999;-0.07560305297374725;27.69704437255859;-2.707424163818359;29.31918334960938;2;86170.0171615;2;0;1556984806.204619;86169.65317600001;0;0.1453247;90.53242;3232235846;179021379;2;1;0.37;-16.27449;-28.70078;0
1556984808.929634;9;0;0;1556984803.98652;4.403301892085986;-75.1471950018358;963.3562;-1;-1;10;65;-9999;1556984808.905867;27.69704437255859;-2.707424163818359;29.31918334960938;322.9624938964844;329.736328125;125;86172.74669150001;0.0169525146484375;0.994140625;-0.0724029541015625;86172.7396425;-0.01065850331471513;0.005933789224805551;0.008074970741229258;86172.74147350001;50.07546997070312;51.09661865234375;-414.9165649414062;86172.7386655;2.242642325185252;0.1433659021032323;-1.494355809298793;-0.00260612741112709;-0.00241384981200099;-3.316439688205719e-06;0.006804674863815308;-0.002973318099975586;-0.001127243041992188;2;-0.3418340384960175;-0.5876720547676086;0.6378993988037109;0.3617669939994812;0.0109107494354248;0.9970798492431641;-0.07558209449052811;27.69704437255859;-2.707424163818359;29.31918334960938;2;86170.0171615;2;0;1556984806.204619;86169.65317600001;0;0.1453247;90.53242;3232235846;179021379;2;1;0.37;-16.27449;-29.08502;0
1556984808.939993;10;0;0;1556984803.98652;4.403301892085986;-75.1471950018358;963.3562;-1;-1;10;65;-9999;1556984808.934183;27.75007247924805;-2.611537933349609;29.2747802734375;322.9617309570312;329.7355651855469;125;86172.75670150001;0.016387939453125;0.993499755859375;-0.0709228515625;86172.7496825;-0.008966597074187788;0.007472297386544326;0.009556487255640338;86172.74147350001;50.07546997070312;51.09661865234375;-414.9165649414062;86172.74870550001;2.242759410547942;0.1434854948758647;-1.494358123118096;-4.399381577968597e-05;0.001598168630152941;0.0006854236125946045;0.005666911602020264;-0.003126144409179688;0.004453420639038086;2;-0.3418380618095398;-0.5876714587211609;0.6378992795944214;0.3617643117904663;0.01091938465833664;0.9970800280570984;-0.0755779892206192;27.75007247924805;-2.611537933349609;29.2747802734375;2;86170.0171615;2;0;1556984806.204619;86169.65317600001;0;0.1453247;90.53242;3232235846;179021379;2;1;0.37;-16.27449;-29.08502;0
1556984808.949674;11;0;0;1556984803.98652;4.403301892085986;-75.1471950018358;963.3562;-1;-1;10;65;-9999;1556984808.934183;27.75007247924805;-2.611537933349609;29.2747802734375;322.9617309570312;329.7355651855469;125;86172.7667415;0.0172576904296875;0.9939727783203125;-0.0745697021484375;86172.75969250001;-0.01024012070746368;0.006762831272147217;0.007352455137490761;86172.7609435;50.5377197265625;50.85333251953125;-414.7841796875;86172.75871550001;2.242823631881661;0.1435528528718054;-1.494360317145094;-0.001699680462479591;0.001325726974755526;-0.0005079391412436962;0.005600869655609131;-0.003477215766906738;0.003719508647918701;2;-0.341841071844101;-0.5876703262329102;0.6378990411758423;0.3617638945579529;0.01092437189072371;0.9970802068710327;-0.0755765363574028;27.75007247924805;-2.611537933349609;29.2747802734375;2;86170.0171615;2;0;1556984806.204619;86169.65317600001;0;0.1453247;90.53242;3232235846;179021379;2;1;0.37;-16.27449;-27.86106;0
1556984808.961435;12;0;0;1556984803.98652;4.403301892085986;-75.1471950018358;963.3562;-1;-1;10;65;-9999;1556984808.934183;27.75007247924805;-2.611537933349609;29.2747802734375;322.9617309570312;329.7355651855469;125;86172.7767515;0.0165863037109375;0.99371337890625;-0.0714263916015625;86172.76970250001;-0.0093703322954438;0.009001484484467826;0.008798018977185771;86172.7609435;50.5377197265625;50.85333251953125;-414.7841796875;86172.76872550001;2.24286866856291;0.1435994306451264;-1.494369593820219;-0.002517644315958023;3.807991743087769e-05;-7.218960672616959e-05;0.00608709454536438;-0.003355860710144043;0.001298069953918457;2;-0.3418439030647278;-0.5876731872558594;0.6378960609436035;0.3617617189884186;0.0109264338389039;0.99708092212677;-0.07556594163179398;28.01035690307617;-2.818012237548828;29.4091796875;2;86170.0171615;2;0;1556984806.204619;86169.65317600001;0;0.1453247;90.53242;3232235846;179021379;2;1;0.37;-16.27449;-27.86106;0
1556984808.969795;13;0;0;1556984803.98652;4.403301892085986;-75.1471950018358;963.3562;-1;-1;10;65;-9999;1556984808.962995;28.01035690307617;-2.818012237548828;29.4091796875;322.9622192382812;329.7360534667969;125;86172.7867615;0.0166778564453125;0.9940338134765625;-0.0721282958984375;86172.7797425;-0.009439840799894867;0.007593471216142932;0.006982275745969747;86172.7804135;50.3056640625;51.02375793457031;-414.8013305664062;86172.7787655;2.242804941021526;0.1435408210863516;-1.494368359356789;0.0007098410278558731;0.000491083599627018;-0.0007209358736872673;0.005724966526031494;-0.003233671188354492;0.004719018936157227;2;-0.341843843460083;-0.5876719355583191;0.6378952264785767;0.3617654144763947;0.01092234905809164;0.9970808029174805;-0.07556896656751633;28.01035690307617;-2.818012237548828;29.4091796875;2;86170.0171615;2;0;1556984806.204619;86169.65317600001;0;0.1453247;90.53242;3232235846;179021379;2;1;0.37;-16.27449;-27.86106;0
1556984808.979809;14;0;0;1556984803.98652;4.403301892085986;-75.1471950018358;963.3562;-1;-1;10;65;-9999;1556984808.962995;28.01035690307617;-2.818012237548828;29.4091796875;322.9622192382812;329.7360534667969;125;86172.79677150001;0.0162200927734375;0.9941864013671875;-0.0737457275390625;86172.7897525;-0.01020976067103677;0.009630789450053549;0.00840040902643694;86172.7804135;50.3056640625;51.02375793457031;-414.8013305664062;86172.78877550001;2.242774812265943;0.1435175558712453;-1.494376230689873;-0.00206420011818409;0.0004978366196155548;-0.0008237725123763084;0.005819410085678101;-0.002792000770568848;0.00284963846206665;2;-0.3418463468551636;-0.5876737236976624;0.6378912329673767;0.3617671728134155;0.01091945264488459;0.9970813989639282;-0.07556133717298508;27.88722991943359;-2.685443878173828;29.37387084960938;2;86170.0171615;2;0;1556984806.204619;86169.65317600001;0;0.1453247;90.53242;3232235846;179021379;2;1;0.37;-16.27449;-28.07378;0
1556984808.989904;15;0;0;1556984803.98652;4.403301892085986;-75.1471950018358;963.3562;-1;-1;10;65;-9999;1556984808.982851;27.88722991943359;-2.685443878173828;29.37387084960938;322.962646484375;329.7364807128906;125;86172.80681150001;0.0153961181640625;0.9933624267578125;-0.07135009765625;86172.79976150001;-0.01007180892657067;0.0071050474722224;0.009933857182104567;86172.7998835;49.92434692382812;51.00447082519531;-414.5559692382812;86172.79878550001;2.242806297609477;0.1435476376261165;-1.494379568261573;0.0005480945110321045;-0.001031883060932159;6.945151835680008e-05;0.004993677139282227;-0.003066897392272949;0.002158999443054199;2;-0.3418471217155457;-0.5876749753952026;0.637890636920929;0.3617654144763947;0.01092119421809912;0.9970816373825073;-0.07555733621120453;27.88722991943359;-2.685443878173828;29.37387084960938;2;86170.0171615;2;0;1556984806.204619;86169.65317600001;0;0.1453247;90.53242;3232235846;179021379;2;1;0.37;-16.27449;-28.07378;0
1556984808.999791;16;0;0;1556984803.98652;4.403301892085986;-75.1471950018358;963.3562;-1;-1;10;65;-9999;1556984808.982851;27.88722991943359;-2.685443878173828;29.37387084960938;322.962646484375;329.7364807128906;125;86172.8168215;0.016448974609375;0.993408203125;-0.0709381103515625;86172.8097715;-0.009262740587404599;0.006873086141276498;0.009433449213278678;86172.7998835;49.92434692382812;51.00447082519531;-414.5559692382812;86172.80879550001;2.242951521691083;0.1436933483170794;-1.494387176101228;-0.0008793696761131287;1.568207517266273e-05;0.0006838785484433174;0.004571616649627686;-0.003952324390411377;0.004607856273651123;2;-0.3418520390987396;-0.5876755118370056;0.6378898620605469;0.3617613911628723;0.01093127857893705;0.9970822334289551;-0.07554934918880463;27.63303756713867;-2.727867126464844;29.55374145507812;2;86170.0171615;2;0;1556984806.204619;86169.65317600001;0;0.1453247;90.53242;3232235846;179021379;2;1;0.37;-16.27449;-17.97025;0
1556984809.009845;17;0;0;1556984803.98652;4.403301892085986;-75.1471950018358;963.3562;-1;-1;10;65;-9999;1556984809.006395;27.8001594543457;-2.675987243652344;29.740966796875;322.962890625;329.7367248535156;125;86172.82683050001;0.01605224609375;0.99481201171875;-0.071746826171875;86172.81981150001;-0.009542905134080935;0.005860552294828372;0.008450742771039438;86172.81935450001;50.04702758789062;51.0078125;-414.2877502441406;86172.8188355;2.243054610869182;0.1437987670120195;-1.494381808427661;0.000642627477645874;0.0004092971794307232;-0.0002479618415236473;0.005829453468322754;-0.003311038017272949;0.004397869110107422;2;-0.341854602098465;-0.5876724720001221;0.6378920674324036;0.3617599606513977;0.01093993708491325;0.9970818161964417;-0.07555299252271652;27.8001594543457;-2.675987243652344;29.740966796875;2;86170.0171615;2;0;1556984806.204619;86169.65317600001;0;0.1453247;90.53242;3232235846;179021379;2;1;0.37;-16.27449;-17.97025;0
1556984809.01989;18;0;0;1556984803.98652;4.403301892085986;-75.1471950018358;963.3562;-1;-1;10;65;-9999;1556984809.006395;27.8001594543457;-2.675987243652344;29.740966796875;322.962890625;329.7367248535156;125;86172.83684050001;0.01641845703125;0.9937286376953125;-0.071807861328125;86172.82982150001;-0.01097914790996067;0.007611314395446463;0.00882651480084962;86172.81935450001;50.04702758789062;51.0078125;-414.2877502441406;86172.8288455;2.243096308245493;0.1438437582045282;-1.494391271341067;-0.001096300780773163;0.0006438777782022953;-0.0006664907559752464;0.005064666271209717;-0.002533555030822754;0.003547549247741699;2;-0.34185791015625;-0.5876752734184265;0.6378886103630066;0.3617582321166992;0.01094179879873991;0.997082531452179;-0.07554188370704651;27.8001594543457;-2.675987243652344;29.740966796875;2;86170.0171615;2;0;1556984806.204619;86169.65317600001;0;0.1453247;90.53242;3232235846;179021379;2;1;0.37;-16.27449;-18.22248;0
1556984809.02991;19;0;0;1556984803.98652;4.403301892085986;-75.1471950018358;963.3562;-1;-1;10;65;-9999;1556984809.006395;27.8001594543457;-2.675987243652344;29.740966796875;322.962890625;329.7367248535156;125;86172.8468805;0.0169830322265625;0.9937591552734375;-0.0727996826171875;86172.83983150001;-0.01068034123565378;0.006067746227636536;0.009494968234459509;86172.83879350001;50.04682922363281;50.88877868652344;-414.4748840332031;86172.83885450001;2.243091277768825;0.143836561804722;-1.494403852303255;-0.0009498270228505135;-0.0002690535038709641;-0.001073155552148819;0.00550958514213562;-0.00361788272857666;0.003732979297637939;2;-0.3418587744235992;-0.5876802802085876;0.637884795665741;0.3617559373378754;0.01093936804682016;0.9970834851264954;-0.07552893459796906;27.73214721679688;-2.785476684570312;29.65838623046875;2;86170.0171615;2;0;1556984806.204619;86169.65317600001;0;0.1453247;90.53242;3232235846;179021379;2;1;0.37;-16.27449;-18.22248;0
1556984809.041238;20;0;0;1556984803.98652;4.403301892085986;-75.1471950018358;963.3562;-1;-1;10;65;-9999;1556984809.032727;27.73214721679688;-2.785476684570312;29.65838623046875;322.9625549316406;329.7363891601562;125;86172.8568905;0.016082763671875;0.9939422607421875;-0.07281494140625;86172.84984150001;-0.00833649316027504;0.00536680222872768;0.009973804598455755;86172.83879350001;50.04682922363281;50.88877868652344;-414.4748840332031;86172.8488645;2.243090867979658;0.1438307024460085;-1.494407489060073;5.31347468495369e-05;0.0003954540006816387;-0.000584164634346962;0.006029278039932251;-0.003282427787780762;0.002387106418609619;2;-0.3418575525283813;-0.58768230676651;0.6378846764564514;0.3617540597915649;0.01093846745789051;0.9970837831497192;-0.07552584260702133;27.73214721679688;-2.785476684570312;29.65838623046875;2;86170.0171615;2;0;1556984806.204619;86169.65317600001;0;0.1453247;90.53242;3232235846;179021379;2;1;0.37;-16.27449;-18.3389;0
1556984809.050045;21;0;0;1556984803.98652;4.403301892085986;-75.1471950018358;963.3562;-1;-1;10;65;-9999;1556984809.032727;27.73214721679688;-2.785476684570312;29.65838623046875;322.9625549316406;329.7363891601562;125;86172.86690050001;0.016632080078125;0.9934539794921875;-0.072113037109375;86172.8598815;-0.01013705637327761;0.007551925903137696;0.008258995172553733;86172.8582645;50.22462463378906;51.14176940917969;-414.87158203125;86172.85890450001;2.243155991490496;0.1438861461023869;-1.49442154153947;-0.002170071937143803;-0.0001845825463533401;-0.0001588575541973114;0.004958838224411011;-0.003329277038574219;0.002694010734558105;2;-0.3418580889701843;-0.5876877307891846;0.6378827691078186;0.361748218536377;0.01094078924506903;0.9970848560333252;-0.0755123570561409;27.85495758056641;-2.583267211914062;29.34185791015625;2;86170.0171615;2;0;1556984806.204619;86169.65317600001;0;0.1453247;90.53242;3232235846;179021379;2;1;0.37;-16.27449;-18.3389;0
1556984809.059794;22;0;0;1556984803.98652;4.403301892085986;-75.1471950018358;963.3562;-1;-1;10;65;-9999;1556984809.057698;27.85495758056641;-2.583267211914062;29.34185791015625;322.9624633789062;329.7362976074219;125;86172.87694050001;0.0167999267578125;0.9933624267578125;-0.07110595703125;86172.8698915;-0.01022227752816015;0.009322928028040389;0.009673666343603825;86172.8777345;50.28297424316406;51.06582641601562;-414.756103515625;86172.86891450001;2.243297055538111;0.1440334192209623;-1.494435823911269;-0.001897896640002728;0.001380174420773983;0.0002905093133449554;0.006002545356750488;-0.003605067729949951;0.003548622131347656;2;-0.341865599155426;-0.5876898169517517;0.6378787159919739;0.3617449402809143;0.01094994321465492;0.9970859289169312;-0.07549718022346497;27.85495758056641;-2.583267211914062;29.34185791015625;2;86170.0171615;2;0;1556984806.204619;86169.65317600001;0;0.1453247;90.53242;3232235846;179021379;2;1;0.37;-16.27449;-18.3389;0
1556984809.06997;23;0;0;1556984803.98652;4.403301892085986;-75.1471950018358;963.3562;-1;-1;10;65;-9999;1556984809.057698;27.85495758056641;-2.583267211914062;29.34185791015625;322.9624633789062;329.7362976074219;125;86172.8869505;0.0158843994140625;0.9937744140625;-0.0713653564453125;86172.87990150001;-0.01100098583089932;0.006015814586379991;0.007600395434977138;86172.8777345;50.28297424316406;51.06582641601562;-414.756103515625;86172.87892450001;2.243335578764645;0.1440676071086864;-1.494448091848468;-0.001724258996546268;-0.0006699264049530029;-0.0001936526969075203;0.005879670381546021;-0.003789067268371582;0.004344701766967773;2;-0.3418668508529663;-0.5876944661140442;0.6378759145736694;0.3617411255836487;0.01095074508339167;0.9970868825912476;-0.07548454403877258;27.85056304931641;-2.688606262207031;29.41244506835938;2;86170.0171615;2;0;1556984806.204619;86169.65317600001;0;0.1453247;90.53242;3232235846;179021379;2;1;0.37;-16.83177;-18.85129;0
1556984809.079841;24;0;0;1556984803.98652;4.403301892085986;-75.1471950018358;963.3562;-1;-1;10;65;-9999;1556984809.057698;27.85495758056641;-2.583267211914062;29.34185791015625;322.9624633789062;329.7362976074219;125;86172.8969605;0.015777587890625;0.9936065673828125;-0.0723724365234375;86172.8899105;-0.009423329201136376;0.006977482056007604;0.008860603262802634;86172.89720450001;50.31767272949219;51.00914001464844;-414.6022338867188;86172.88893450001;2.243342793226046;0.1440790379281404;-1.494452515408888;-0.0009370287880301476;0.001531795598566532;0.0001994865015149117;0.004841983318328857;-0.003377437591552734;0.003957569599151611;2;-0.3418689072132111;-0.5876956582069397;0.6378735899925232;0.3617412149906158;0.01095081120729446;0.9970872402191162;-0.0754789263010025;27.85056304931641;-2.688606262207031;29.41244506835938;2;86170.0171615;2;0;1556984806.204619;86169.65317600001;0;0.1453247;90.53242;3232235846;179021379;2;1;0.37;-16.83177;-18.85129;0
1556984809.089912;25;0;0;1556984803.98652;4.403301892085986;-75.1471950018358;963.3562;-1;-1;10;65;-9999;1556984809.082347;27.87889862060547;-2.713577270507812;29.51846313476562;322.9622497558594;329.736083984375;125;86172.9069705;0.0166015625;0.993316650390625;-0.0721435546875;86172.8999515;-0.01105558063324594;0.006051767261096061;0.007152984371843826;86172.89720450001;50.31767272949219;51.00914001464844;-414.6022338867188;86172.8989745;2.243401227284562;0.1441359467655797;-1.494460625363813;-0.001718932762742043;7.637776434421539e-05;0.0003464929759502411;0.004976272583007812;-0.003393292427062988;0.002880394458770752;2;-0.3418709635734558;-0.5876983404159546;0.6378717422485352;0.3617381155490875;0.01095387432724237;0.997087836265564;-0.07546980679035187;27.87889862060547;-2.713577270507812;29.51846313476562;2;86170.0171615;2;0;1556984806.204619;86169.65317600001;0;0.1453247;90.53242;3232235846;179021379;2;1;0.37;-17.38905;-19.47748;0
1556984809.099967;26;0;0;1556984803.98652;4.403301892085986;-75.1471950018358;963.3562;-1;-1;10;65;-9999;1556984809.082347;27.87889862060547;-2.713577270507812;29.51846313476562;322.9622497558594;329.736083984375;125;86172.91701050001;0.017425537109375;0.99407958984375;-0.0717315673828125;86172.90996050001;-0.009658752641499381;0.007019826317339864;0.005938316598658685;86172.91667450001;50.05209350585938;50.81094360351562;-414.4836120605469;86172.9089845;2.243222426370071;0.1439527061766037;-1.494465781147705;-6.674975156784058e-05;-0.0009438991546630859;-0.002006720751523972;0.005936801433563232;-0.003943026065826416;0.003366172313690186;2;-0.3418658077716827;-0.5877023935317993;0.6378692388534546;0.3617408871650696;0.01093939505517483;0.9970882534980774;-0.07546733319759369;27.87889862060547;-2.713577270507812;29.51846313476562;2;86170.0171615;2;0;1556984806.204619;86169.65317600001;0;0.1453247;90.53242;3232235846;179021379;2;1;0.37;-17.38905;-19.47748;0
1556984809.109982;27;0;0;1556984803.98652;4.403301892085986;-75.1471950018358;963.3562;-1;-1;10;65;-9999;1556984809.106919;27.79439926147461;-2.855659484863281;29.61477661132812;322.9624633789062;329.7362976074219;125;86172.92702050001;0.017486572265625;0.9931488037109375;-0.07220458984375;86172.91997050001;-0.01003319309076452;0.008991630788434532;0.007737281915007211;86172.91667450001;50.05209350585938;50.81094360351562;-414.4836120605469;86172.91899450001;2.243089659121993;0.1438206350596706;-1.494461878890464;0.000957767479121685;-0.001021396834403276;-0.0001893797889351845;0.006602317094802856;-0.003057718276977539;0.003768324851989746;2;-0.3418621718883514;-0.587702214717865;0.6378690600395203;0.3617449402809143;0.01092999894171953;0.9970879554748535;-0.07547272741794586;27.79439926147461;-2.855659484863281;29.61477661132812;2;86170.0171615;2;0;1556984806.204619;86169.65317600001;0;0.1453247;90.53242;3232235846;179021379;2;1;0.37;-17.38905;-19.47748;0
1556984809.119956;28;0;0;1556984803.98652;4.403301892085986;-75.1471950018358;963.3562;-1;-1;10;65;-9999;1556984809.106919;27.79439926147461;-2.855659484863281;29.61477661132812;322.9624633789062;329.7362976074219;125;86172.93702950001;0.0160980224609375;0.9934539794921875;-0.072845458984375;86172.9300105;-0.01110990911948356;0.006862433496916181;0.008557002898533601;86172.9361145;50.076171875;50.92512512207031;-414.5986022949219;86172.9290345;2.243144112227578;0.1438794593418792;-1.494462966682474;0.0001344075426459312;0.001451530493795872;0.001565076410770416;0.006246834993362427;-0.004217147827148438;0.003142833709716797;2;-0.3418651819229126;-0.5877005457878113;0.6378688812255859;0.361745297908783;0.01093450374901295;0.9970880150794983;-0.07547253370285034;27.79439926147461;-2.855659484863281;29.61477661132812;2;86170.0171615;2;0;1556984806.204619;86169.65317600001;0;0.1453247;90.53242;3232235846;179021379;2;1;0.37;-17.84115;-19.71517;0
1556984809.130037;29;0;0;1556984803.98652;4.403301892085986;-75.1471950018358;963.3562;-1;-1;10;65;-9999;1556984809.106919;27.79439926147461;-2.855659484863281;29.61477661132812;322.9624633789062;329.7362976074219;125;86172.94703950001;0.016510009765625;0.99365234375;-0.0720062255859375;86172.9400205;-0.0129530829099274;0.006302903351890533;0.005923402896554242;86172.9361145;50.076171875;50.92512512207031;-414.5986022949219;86172.9390445;2.243162057866684;0.1438893562399846;-1.494473145086585;-0.0006642751395702362;-0.0005146809853613377;0.0007275119423866272;0.00514906644821167;-0.003332972526550293;0.002704262733459473;2;-0.3418643772602081;-0.5877058506011963;0.6378669142723083;0.36174076795578;0.01093361899256706;0.9970887899398804;-0.07546116411685944;27.82253646850586;-2.740039825439453;29.52993774414062;2;86170.0171615;2;0;1556984806.204619;86169.65317600001;0;0.1453247;90.53242;3232235846;179021379;2;1;0.37;-17.84115;-19.71517;0
1556984809.140099;30;0;0;1556984803.98652;4.403301892085986;-75.1471950018358;963.3562;-1;-1;10;65;-9999;1556984809.132886;27.82253646850586;-2.740039825439453;29.52993774414062;322.9622192382812;329.7360534667969;125;86172.9570795;0.0172271728515625;0.9936065673828125;-0.0719451904296875;86172.95003050001;-0.00936127754773753;0.006095709419082368;0.008881109603196243;86172.9555845;50.15763854980469;50.89764404296875;-414.6940002441406;86172.94905350001;2.243203879696593;0.1439375110648238;-1.494487117131011;-0.001298434101045132;0.001388002652674913;0.0003667287528514862;0.006032347679138184;-0.003669500350952148;0.003545463085174561;2;-0.3418694138526917;-0.5877086520195007;0.6378620266914368;0.3617401719093323;0.01093537639826536;0.9970898628234863;-0.0754476860165596;27.82253646850586;-2.740039825439453;29.52993774414062;2;86170.0171615;2;0;1556984806.204619;86169.65317600001;0;0.1453247;90.53242;3232235846;179021379;2;1;0.37;-17.84115;-19.10034;0
1556984809.150118;31;0;0;1556984803.98652;4.403301892085986;-75.1471950018358;963.3562;-1;-1;10;65;-9999;1556984809.132886;27.82253646850586;-2.740039825439453;29.52993774414062;322.9622192382812;329.7360534667969;125;86172.9670895;0.0166778564453125;0.9938812255859375;-0.072479248046875;86172.96004050001;-0.01062654538163418;0.006268814889937519;0.007623564936460827;86172.9555845;50.15763854980469;50.89764404296875;-414.6940002441406;86172.95906350001;2.243201297215859;0.1439388746707501;-1.49449211545875;-0.001204957254230976;0.001224218402057886;-0.0005573881790041924;0.006033092737197876;-0.003197073936462402;0.003554642200469971;2;-0.3418712317943573;-0.5877100825309753;0.6378595232963562;0.3617404401302338;0.01093463413417339;0.997090220451355;-0.07544183731079102;27.83998870849609;-2.712608337402344;29.41635131835938;2;86170.0171615;2;0;1556984806.204619;86169.65317600001;0;0.1453247;90.53242;3232235846;179021379;2;1;0.37;-17.84115;-19.10034;0
1556984809.160073;32;0;0;1556984803.98652;4.403301892085986;-75.1471950018358;963.3562;-1;-1;10;65;-9999;1556984809.157296;27.83998870849609;-2.712608337402344;29.41635131835938;322.9625549316406;329.7363891601562;125;86172.9770995;0.0166015625;0.993438720703125;-0.0722503662109375;86172.9700805;-0.009933857182104567;0.007476292128179445;0.008272310978004131;86172.9750545;50.49880981445312;51.03770446777344;-414.6897583007812;86172.9691035;2.243314358568804;0.144055068889898;-1.494496848492453;-0.001515018753707409;0.001522355247288942;0.00148896686732769;0.005902945995330811;-0.003441572189331055;0.003029763698577881;2;-0.3418757021427155;-0.5877100825309753;0.6378585696220398;0.3617378771305084;0.01094269752502441;0.9970905780792236;-0.07543572783470154;27.83998870849609;-2.712608337402344;29.41635131835938;2;86170.0171615;2;0;1556984806.204619;86169.65317600001;0;0.1453247;90.53242;3232235846;179021379;2;1;0.37;-17.84115;-17.84115;0
1556984809.170103;33;0;0;1556984803.98652;4.403301892085986;-75.1471950018358;963.3562;-1;-1;10;65;-9999;1556984809.157296;27.83998870849609;-2.712608337402344;29.41635131835938;322.9625549316406;329.7363891601562;125;86172.9871095;0.0168304443359375;0.993865966796875;-0.0721282958984375;86172.9800905;-0.009633985243361644;0.00699852102861923;0.008836901129100929;86172.9750545;50.49880981445312;51.03770446777344;-414.6897583007812;86172.97911350001;2.243490275366317;0.1442303888381645;-1.494493416595565;0.0001015197485685349;8.344929665327072e-05;0.001765402965247631;0.005736440420150757;-0.003669977188110352;0.003261685371398926;2;-0.3418795466423035;-0.5877066254615784;0.6378618478775024;0.3617342412471771;0.01095661800354719;0.9970903396606445;-0.07543859630823135;28.07222747802734;-2.686008453369141;29.48690795898438;2;86170.0171615;2;0;1556984806.204619;86169.65317600001;0;0.1453247;90.53242;3232235846;179021379;2;1;0.37;-17.84115;-17.84115;0
1556984809.180029;34;0;0;1556984803.98652;4.403301892085986;-75.1471950018358;963.3562;-1;-1;10;65;-9999;1556984809.157296;27.83998870849609;-2.712608337402344;29.41635131835938;322.9625549316406;329.7363891601562;125;86172.99714950001;0.01702880859375;0.994384765625;-0.0726165771484375;86172.99009950001;-0.008470183846997017;0.008804144247692953;0.008904545420788942;86172.99452550001;50.2918701171875;51.02308654785156;-414.8610229492188;86172.98912350001;2.243558248412004;0.1442990827700935;-1.49449101913394;-0.0003732666373252869;-0.0007235109806060791;5.438085645437241e-05;0.00615808367729187;-0.002967953681945801;0.00306546688079834;2;-0.3418811857700348;-0.5877047777175903;0.6378632783889771;0.3617332279682159;0.01096221525222063;0.9970901608467102;-0.07544069737195969;28.07222747802734;-2.686008453369141;29.48690795898438;2;86170.0171615;2;0;1556984806.204619;86169.65317600001;0;0.1453247;90.53242;3232235846;179021379;2;1;0.37;-17.84115;-17.84115;0
1556984809.190128;35;0;0;1556984803.98652;4.403301892085986;-75.1471950018358;963.3562;-1;-1;10;65;-9999;1556984809.182564;27.88796615600586;-2.665805816650391;29.37615966796875;322.9632263183594;329.737060546875;125;86173.0071595;0.01678466796875;0.9937744140625;-0.0722808837890625;86173.0001095;-0.009479788216246057;0.006945524122926653;0.007522631131146824;86172.99452550001;50.2918701171875;51.02308654785156;-414.8610229492188;86172.99913350001;2.243627321904328;0.1443785256619513;-1.494487464361652;-0.0004670098423957825;0.0008983546867966652;0.0004972647875547409;0.006075680255889893;-0.00272369384765625;0.002760052680969238;2;-0.3418855667114258;-0.587702214717865;0.6378626823425293;0.361734002828598;0.0109683396294713;0.9970898628234863;-0.07544073462486267;27.88796615600586;-2.665805816650391;29.37615966796875;2;86170.0171615;2;0;1556984806.204619;86169.65317600001;0;0.1453247;90.53242;3232235846;179021379;2;1;0.37;-17.84115;-17.98114;0
1556984809.20035;36;0;0;1556984803.98652;4.403301892085986;-75.1471950018358;963.3562;-1;-1;10;65;-9999;1556984809.182564;27.88796615600586;-2.665805816650391;29.37615966796875;322.9632263183594;329.737060546875;125;86173.0171695;0.0169219970703125;0.994140625;-0.073028564453125;86173.01015050001;-0.009787649638259217;0.008008125397868269;0.007254184493266837;86173.0139955;50.13142395019531;51.26033020019531;-414.67236328125;86173.0091735;2.243677958496432;0.144428402410316;-1.494493688146773;-0.00105676706880331;-0.0004337644204497337;0.0006991093978285789;0.005614817142486572;-0.003288507461547852;0.003334760665893555;2;-0.3418875336647034;-0.5877033472061157;0.6378616690635681;0.3617322444915771;0.01097140368074179;0.9970903396606445;-0.07543537765741348;27.88796615600586;-2.665805816650391;29.37615966796875;2;86170.0171615;2;0;1556984806.204619;86169.65317600001;0;0.1453247;90.53242;3232235846;179021379;2;1;0.37;-17.84115;-17.98114;0
1556984809.210223;37;0;0;1556984803.98652;4.403301892085986;-75.1471950018358;963.3562;-1;-1;10;65;-9999;1556984809.207852;27.80756378173828;-2.550754547119141;29.48574829101562;322.9642944335938;329.7381286621094;125;86173.02720950001;0.0174713134765625;0.9945220947265625;-0.0722503662109375;86173.02015950001;-0.009780725419425011;0.007513842699549563;0.008701346229615894;86173.0139955;50.13142395019531;51.26033020019531;-414.67236328125;86173.0191835;2.243685447175312;0.1444538769263556;-1.49449412940044;0.0002513770014047623;0.00306403124704957;0.0004037646576762199;0.006101369857788086;-0.002815604209899902;0.00240248441696167;2;-0.3418934643268585;-0.5877005457878113;0.6378583312034607;0.3617369830608368;0.01097314432263374;0.9970903992652893;-0.07543385773897171;27.80756378173828;-2.550754547119141;29.48574829101562;2;86170.0171615;2;0;1556984806.204619;86169.65317600001;0;0.1453247;90.53242;3232235846;179021379;2;1;0.37;-17.84115;-18.61353;0
1556984809.220222;38;0;0;1556984803.98652;4.403301892085986;-75.1471950018358;963.3562;-1;-1;10;65;-9999;1556984809.207852;27.80756378173828;-2.550754547119141;29.48574829101562;322.9642944335938;329.7381286621094;125;86173.03721950001;0.01678466796875;0.99395751953125;-0.07177734375;86173.03016950001;-0.009587379924285258;0.007163903332313151;0.008234227774415997;86173.0334345;49.97726440429688;51.14007568359375;-414.3203125;86173.02919250001;2.243693063997885;0.1444638425228257;-1.494499551834101;0.0002059256657958031;0.0002110134810209274;-0.0006253570318222046;0.006268918514251709;-0.002769947052001953;0.003589928150177002;2;-0.3418953120708466;-0.5877007246017456;0.6378569006919861;0.3617377579212189;0.0109734833240509;0.9970908164978027;-0.07543090730905533;27.80756378173828;-2.550754547119141;29.48574829101562;2;86170.0171615;2;0;1556984806.204619;86169.65317600001;0;0.1453247;90.53242;3232235846;179021379;2;1;0.37;-17.84115;-18.61353;0
1556984809.230221;39;0;0;1556984803.98652;4.403301892085986;-75.1471950018358;963.3562;-1;-1;10;65;-9999;1556984809.207852;27.80756378173828;-2.550754547119141;29.48574829101562;322.9642944335938;329.7381286621094;125;86173.047234375;0.0168609619140625;0.9936981201171875;-0.0723876953125;86173.04017950001;-0.009432383948842646;0.007317035094992707;0.008705340971251014;86173.0334345;49.97726440429688;51.14007568359375;-414.3203125;86173.0392025;2.243684564731287;0.1444586832635516;-1.494503625833689;-0.001323261298239231;0.0001433691941201687;-0.001133754383772612;0.005674898624420166;-0.003243207931518555;0.003478527069091797;2;-0.3418966829776764;-0.5877018570899963;0.6378548145294189;0.3617382347583771;0.01097242627292871;0.9970911145210266;-0.0754263699054718;27.71503829956055;-2.584236145019531;29.69503784179688;2;86170.0171615;2;0;1556984806.204619;86170.604897;0;0.1453247;90.53242;3232235846;179021379;2;1;0.37;-17.84115;-19.24247;0
1556984809.240259;40;0;0;1556984803.98652;4.403301892085986;-75.1471950018358;963.3562;-1;-1;10;65;-9999;1556984809.232575;27.71503829956055;-2.584236145019531;29.69503784179688;322.9644165039062;329.7382507324219;125;86173.057244375;0.0165863037109375;0.993072509765625;-0.0722198486328125;86173.050225375;-0.008264055178624883;0.00670610594092853;0.008880044338760213;86173.05291137501;49.86614990234375;50.96022033691406;-414.6904602050781;86173.04924937501;2.243673886094236;0.1444444635657721;-1.494479019594141;0.0036095199175179;-0.0005771582946181297;-0.0004049604758620262;0.005764126777648926;-0.003454923629760742;0.003028929233551025;2;-0.3418918550014496;-0.5876947045326233;0.6378628611564636;0.3617401123046875;0.01097473688423634;0.9970892667770386;-0.07544978708028793;27.71503829956055;-2.584236145019531;29.69503784179688;2;86170.0171615;2;0;1556984806.204619;86170.604897;0;0.1453247;90.53242;3232235846;179021379;2;1;0.37;-17.84115;-19.24247;0
1556984809.250272;41;0;0;1556984803.98652;4.403301892085986;-75.1471950018358;963.3562;-1;-1;10;65;-9999;1556984809.232575;27.71503829956055;-2.584236145019531;29.69503784179688;322.9644165039062;329.7382507324219;125;86173.06728437501;0.0177459716796875;0.9933624267578125;-0.072021484375;86173.060235375;-0.01067394964903759;0.00785153152577161;0.00977806225833493;86173.05291137501;49.86614990234375;50.96022033691406;-414.6904602050781;86173.05925837501;2.243849089481934;0.1446148410404894;-1.494480611922229;-0.001003075391054153;-0.0001214914955198765;0.00116976723074913;0.005781888961791992;-0.004157006740570068;0.003224730491638184;2;-0.3418949842453003;-0.587693989276886;0.6378651261329651;0.3617344200611115;0.01098748575896025;0.9970893859863281;-0.07544718682765961;27.66024780273438;-2.656978607177734;29.43356323242188;2;86170.0171615;2;0;1556984806.204619;86170.604897;0;0.1453247;90.53242;3232235846;179021379;2;1;0.37;-17.84115;-19.24247;0
1556984809.260282;42;0;0;1556984803.98652;4.403301892085986;-75.1471950018358;963.3562;-1;-1;10;65;-9999;1556984809.258525;27.85528182983398;-2.685947418212891;29.2911376953125;322.963623046875;329.7374572753906;125;86173.07729437501;0.0171966552734375;0.993743896484375;-0.0720367431640625;86173.070245375;-0.00942039972393729;0.006533799418400403;0.007764446158126019;86173.07238137501;50.18133544921875;51.01753234863281;-414.8567504882812;86173.06926837501;2.243938179385199;0.1446962798314528;-1.494480898408409;0.0005498649552464485;-0.0005224128253757954;0.0007045147940516472;0.006828486919403076;-0.003714501857757568;0.003514647483825684;2;-0.3418948948383331;-0.5876940488815308;0.6378675103187561;0.3617303371429443;0.01099375821650028;0.9970893859863281;-0.07544717192649841;27.66024780273438;-2.656978607177734;29.43356323242188;2;86170.0171615;2;0;1556984806.204619;86170.604897;0;0.1453247;90.53242;3232235846;179021379;2;1;0.37;-17.76038;-19.58256;0
1556984809.270342;43;0;0;1556984803.98652;4.403301892085986;-75.1471950018358;963.3562;-1;-1;10;65;-9999;1556984809.258525;27.85528182983398;-2.685947418212891;29.2911376953125;322.963623046875;329.7374572753906;125;86173.087304375;0.0162200927734375;0.99365234375;-0.0724945068359375;86173.080254375;-0.009146893079986151;0.006092513625774273;0.004877046904262109;86173.07238137501;50.18133544921875;51.01753234863281;-414.8567504882812;86173.07927837501;2.243814130094189;0.1445696967000563;-1.494488483400598;-0.001261883415281773;-0.0004635569639503956;-0.001250778324902058;0.005954205989837646;-0.003455698490142822;0.00341641902923584;2;-0.3418919742107391;-0.5876985788345337;0.6378641724586487;0.3617315590381622;0.01098303589969873;0.9970899820327759;-0.07544051855802536;27.85528182983398;-2.685947418212891;29.2911376953125;2;86170.0171615;2;0;1556984806.204619;86170.604897;0;0.1453247;90.53242;3232235846;179021379;2;1;0.37;-17.76038;-19.58256;0
1556984809.281025;44;0;0;1556984803.98652;4.403301892085986;-75.1471950018358;963.3562;-1;-1;10;65;-9999;1556984809.258525;27.85528182983398;-2.685947418212891;29.2911376953125;322.963623046875;329.7374572753906;125;86173.097314375;0.0166473388671875;0.993743896484375;-0.071746826171875;86173.090295375;-0.009269398490129796;0.007231281307892155;0.007623564936460827;86173.09185137501;50.23396301269531;50.98623657226562;-414.904296875;86173.089318375;2.243700959507696;0.1444604645528803;-1.494469294223582;0.002766853198409081;0.0001227883622050285;-0.000343826599419117;0.005319178104400635;-0.00345456600189209;0.002991199493408203;2;-0.3418875932693481;-0.5876936912536621;0.63786780834198;0.361736923456192;0.01097716391086578;0.9970884919166565;-0.07545799762010574;27.85528182983398;-2.685947418212891;29.2911376953125;2;86170.0171615;2;0;1556984806.204619;86170.604897;0;0.1453247;90.53242;3232235846;179021379;2;1;0.37;-17.76038;-19.74707;0
1556984809.29036;45;0;0;1556984803.98652;4.403301892085986;-75.1471950018358;963.3562;-1;-1;10;65;-9999;1556984809.283579;27.86399078369141;-2.698631286621094;29.28713989257812;322.9637451171875;329.7375793457031;125;86173.10735437501;0.0163116455078125;0.9934844970703125;-0.0711669921875;86173.10030437501;-0.009733853784239615;0.006237389589074584;0.007171093867256365;86173.09185137501;50.23396301269531;50.98623657226562;-414.904296875;86173.099328375;2.243819717322843;0.1445788365102083;-1.494467715420855;-0.0001261383295059204;0.0005768574774265289;0.001884173601865768;0.005859285593032837;-0.003332316875457764;0.003708779811859131;2;-0.3418902456760406;-0.5876919627189636;0.6378695964813232;0.3617340922355652;0.01098634861409664;0.9970883727073669;-0.07545843720436096;27.86399078369141;-2.698631286621094;29.28713989257812;2;86170.0171615;2;0;1556984806.204619;86170.604897;0;0.1453247;90.53242;3232235846;179021379;2;1;0.37;-17.76038;-19.74707;0
1556984809.300378;46;0;0;1556984803.98652;4.403301892085986;-75.1471950018358;963.3562;-1;-1;10;65;-9999;1556984809.283579;27.86399078369141;-2.698631286621094;29.28713989257812;322.9637451171875;329.7375793457031;125;86173.11736437501;0.01666259765625;0.9925994873046875;-0.0717926025390625;86173.11031437501;-0.009440373432112884;0.006057892531603243;0.008566856594566893;86173.11132137501;50.37748718261719;51.066650390625;-414.7859497070312;86173.10933837501;2.243877645924427;0.1446332877420713;-1.494483628433227;-0.002368134446442127;0.0005558300763368607;-4.396494477987289e-05;0.005307763814926147;-0.003821492195129395;0.00442802906036377;2;-0.3418929576873779;-0.5876960754394531;0.6378664374351501;0.3617307543754578;0.01098859682679176;0.9970896244049072;-0.07544505596160889;27.86399078369141;-2.698631286621094;29.28713989257812;2;86170.0171615;2;0;1556984806.204619;86170.604897;0;0.1453247;90.53242;3232235846;179021379;2;1;0.37;-17.76038;-19.9992;0
1556984809.310348;47;0;0;1556984803.98652;4.403301892085986;-75.1471950018358;963.3562;-1;-1;10;65;-9999;1556984809.306916;27.8958740234375;-2.645206451416016;29.43899536132812;322.9640808105469;329.7379150390625;125;86173.12737437501;0.0162506103515625;0.99407958984375;-0.0729827880859375;86173.12035537501;-0.01005769417279325;0.008629440880183756;0.007873369446710261;86173.11132137501;50.37748718261719;51.066650390625;-414.7859497070312;86173.11937837501;2.243889096620618;0.1446523687781223;-1.494482916332436;-0.000524960458278656;0.0005438458174467087;-0.0001334473490715027;0.005535602569580078;-0.004325330257415771;0.003341317176818848;2;-0.3418953418731689;-0.5876960158348083;0.6378645896911621;0.3617314398288727;0.01098961196839809;0.9970895648002625;-0.07544193416833878;27.8958740234375;-2.645206451416016;29.43899536132812;2;86170.0171615;2;0;1556984806.204619;86170.604897;0;0.1453247;90.53242;3232235846;179021379;2;1;0.37;-17.76038;-19.9992;0
1556984809.320474;48;0;0;1556984803.98652;4.403301892085986;-75.1471950018358;963.3562;-1;-1;10;65;-9999;1556984809.306916;27.8958740234375;-2.645206451416016;29.43899536132812;322.9640808105469;329.7379150390625;125;86173.13738337501;0.016845703125;0.9945068359375;-0.071533203125;86173.130364375;-0.009293633256049517;0.007323692997717905;0.007960454814355851;86173.13076137501;50.07722473144531;51.45687866210938;-414.4287719726562;86173.129388375;2.243993716914418;0.1447555971394228;-1.494486668976784;-0.0002562208101153374;-0.0005821851082146168;0.001628209836781025;0.005100816488265991;-0.002601027488708496;0.002728402614593506;2;-0.3418981730937958;-0.5876955389976501;0.6378651857376099;0.3617287278175354;0.01099716406315565;0.9970898032188416;-0.07543918490409851;27.8958740234375;-2.645206451416016;29.43899536132812;2;86170.0171615;2;0;1556984806.204619;86170.604897;0;0.1453247;90.53242;3232235846;179021379;2;1;0.37;-17.76038;-20.65685;0
1556984809.330384;49;0;0;1556984803.98652;4.403301892085986;-75.1471950018358;963.3562;-1;-1;10;65;-9999;1556984809.306916;27.8958740234375;-2.645206451416016;29.43899536132812;322.9640808105469;329.7379150390625;125;86173.147424375;0.01678466796875;0.9940185546875;-0.072296142578125;86173.14037437501;-0.009914682422255995;0.009648099997139064;0.008731706266042798;86173.13076137501;50.07722473144531;51.45687866210938;-414.4287719726562;86173.13939737501;2.243904792822657;0.1446711110894637;-1.494487928674162;-0.000465812161564827;-0.0002045487053692341;-0.001084486022591591;0.00590088963508606;-0.002738296985626221;0.003765702247619629;2;-0.3418975174427032;-0.5876961350440979;0.6378630995750427;0.3617320358753204;0.01099058147519827;0.9970899224281311;-0.07543867826461792;27.70934677124023;-2.368392944335938;29.62594604492188;2;86170.0171615;2;0;1556984806.204619;86170.604897;0;0.1453247;90.53242;3232235846;179021379;2;1;0.37;-17.76038;-20.65685;0
1556984809.340878;50;0;0;1556984803.98652;4.403301892085986;-75.1471950018358;963.3562;-1;-1;10;65;-9999;1556984809.3327;27.61372756958008;-2.595855712890625;29.7578125;322.9652099609375;329.7390441894531;125;86173.157433375;0.0164031982421875;0.9941253662109375;-0.0727081298828125;86173.15038437501;-0.008347944752962379;0.005915679729393012;0.009002549748903858;86173.15023137501;49.91064453125;51.08218383789062;-414.2968139648438;86173.14940737501;2.243920784479839;0.1447035476218685;-1.494487469368177;-0.0008217878639698029;0.002364566083997488;0.0005327751860022545;0.005730390548706055;-0.003012716770172119;0.003110587596893311;2;-0.3419031500816345;-0.5876924991607666;0.6378607749938965;0.3617368042469025;0.01099320314824581;0.9970898628234863;-0.07543952763080597;27.61372756958008;-2.595855712890625;29.7578125;2;86170.0171615;2;0;1556984806.204619;86170.604897;0;0.1453247;90.53242;3232235846;179021379;2;1;0.37;-17.76038;-20.65685;0
1556984809.350405;51;0;0;1556984803.98652;4.403301892085986;-75.1471950018358;963.3562;-1;-1;10;65;-9999;1556984809.3327;27.61372756958008;-2.595855712890625;29.7578125;322.9652099609375;329.7390441894531;125;86173.167443375;0.0160064697265625;0.993621826171875;-0.072418212890625;86173.160424375;-0.01117382498564546;0.005221127317100347;0.007228618146802077;86173.15023137501;49.91064453125;51.08218383789062;-414.2968139648438;86173.15944837501;2.243847939689831;0.1446301315763221;-1.494487681572813;-0.0002824980765581131;-0.0001462623476982117;-0.001137026585638523;0.005202203989028931;-0.003058731555938721;0.002635955810546875;2;-0.341901034116745;-0.5876943469047546;0.637859582901001;0.3617376685142517;0.01098733674734831;0.9970899224281311;-0.07543807476758957;27.61372756958008;-2.595855712890625;29.7578125;2;86170.0171615;2;0;1556984806.204619;86170.604897;0;0.1453247;90.53242;3232235846;179021379;2;1;0.37;-17.76038;-21.34753;0
1556984809.360439;52;0;0;1556984803.98652;4.403301892085986;-75.1471950018358;963.3562;-1;-1;10;65;-9999;1556984809.358616;27.63169097900391;-2.812282562255859;29.58187866210938;322.96533203125;329.7391662597656;125;86173.177453375;0.0167694091796875;0.9937896728515625;-0.071624755859375;86173.170434375;-0.01109765857846919;0.005932457644260511;0.007387608863879807;86173.16970137501;49.87132263183594;50.8326416015625;-414.4994506835938;86173.169457375;2.243886549213093;0.1446773479547301;-1.49448230024642;0.002298464067280293;0.002776565961539745;0.000765201635658741;0.005029797554016113;-0.003607451915740967;0.003344178199768066;2;-0.3419041037559509;-0.5876899361610413;0.6378605365753174;0.3617404103279114;0.01099187321960926;0.9970895051956177;-0.07544424384832382;27.63169097900391;-2.812282562255859;29.58187866210938;2;86170.0171615;2;0;1556984806.204619;86170.604897;0;0.1453247;90.53242;3232235846;179021379;2;1;0.37;-17.76038;-21.34753;0
1556984809.37052;53;0;0;1556984803.98652;4.403301892085986;-75.1471950018358;963.3562;-1;-1;10;65;-9999;1556984809.358616;27.63169097900391;-2.812282562255859;29.58187866210938;322.96533203125;329.7391662597656;125;86173.18749337501;0.0162811279296875;0.993988037109375;-0.0723724365234375;86173.180444375;-0.01002147518196817;0.007388407812206831;0.01012746899335333;86173.16970137501;49.87132263183594;50.8326416015625;-414.4994506835938;86173.17946737501;2.243934728842965;0.1447179046081933;-1.494477287136662;0.001345318742096424;-0.0005981912836432457;0.0001793066039681435;0.00572812557220459;-0.003271341323852539;0.003744065761566162;2;-0.341902107000351;-0.5876897573471069;0.6378635764122009;0.361737072467804;0.01099545694887638;0.9970890879631042;-0.07544739544391632;27.63169097900391;-2.812282562255859;29.58187866210938;2;86170.0171615;2;0;1556984806.204619;86170.604897;0;0.1453247;90.53242;3232235846;179021379;2;1;0.37;-17.76038;-21.78147;0
1556984809.380547;54;0;0;1556984803.98652;4.403301892085986;-75.1471950018358;963.3562;-1;-1;10;65;-9999;1556984809.358616;27.63169097900391;-2.812282562255859;29.58187866210938;322.96533203125;329.7391662597656;125;86173.19750337501;0.016326904296875;0.99395751953125;-0.0721588134765625;86173.19045337501;-0.009613478902968034;0.00788881578103272;0.008351140546270475;86173.189172375;49.80278015136719;50.99235534667969;-414.5586547851562;86173.18947737501;2.244099183463083;0.1448731702219201;-1.494476280762474;5.659181624650955e-05;-0.0009818365797400475;0.001622656360268593;0.005258560180664062;-0.003057360649108887;0.002706229686737061;2;-0.3419031798839569;-0.5876893401145935;0.6378671526908875;0.3617304563522339;0.01100734900683165;0.9970890283584595;-0.07544691115617752;27.52593612670898;-2.695953369140625;29.53860473632812;2;86170.0171615;2;0;1556984806.204619;86170.604897;0;0.1453247;90.53242;3232235846;179021379;2;1;0.37;-17.76038;-21.78147;0
1556984809.390717;55;0;0;1556984803.98652;4.403301892085986;-75.1471950018358;963.3562;-1;-1;10;65;-9999;1556984809.383029;27.52593612670898;-2.695953369140625;29.53860473632812;322.9644470214844;329.73828125;125;86173.207513375;0.0164947509765625;0.9941253662109375;-0.0709991455078125;86173.20049437501;-0.01089872044504027;0.00653672889559949;0.008874451700471046;86173.189172375;49.80278015136719;50.99235534667969;-414.5586547851562;86173.199517375;2.244203164699515;0.1449731924428257;-1.494469804013659;0.001239567995071411;-0.0001623816788196564;0.001296153292059898;0.005539953708648682;-0.003285765647888184;0.003856122493743896;2;-0.3419036567211151;-0.5876867175102234;0.6378709673881531;0.3617275655269623;0.01101586129516363;0.9970885515213013;-0.07545242458581924;27.52593612670898;-2.695953369140625;29.53860473632812;2;86170.0171615;2;0;1556984806.204619;86170.604897;0;0.1453247;90.53242;3232235846;179021379;2;1;0.37;-17.76038;-22.10949;0
1556984809.401038;56;0;0;1556984803.98652;4.403301892085986;-75.1471950018358;963.3562;-1;-1;10;65;-9999;1556984809.383029;27.52593612670898;-2.695953369140625;29.53860473632812;322.9644470214844;329.73828125;125;86173.21755337501;0.0166473388671875;0.9953460693359375;-0.0720977783203125;86173.21050337501;-0.009337575414035825;0.007881891562198514;0.009985788823361111;86173.208642375;50.21688842773438;51.17816162109375;-414.7825927734375;86173.209527375;2.244137769384982;0.1449014782185601;-1.494466624175592;0.001304542645812035;-0.001351593527942896;-0.001347201410681009;0.005407243967056274;-0.00275123119354248;0.004228532314300537;2;-0.3418996930122375;-0.5876865386962891;0.6378728747367859;0.3617284595966339;0.01101118698716164;0.9970883131027222;-0.07545826584100723;27.83228302001953;-2.590400695800781;29.4361572265625;2;86170.0171615;2;0;1556984806.204619;86170.604897;0;0.1453247;90.53242;3232235846;179021379;2;1;0.37;-17.76038;-22.10949;0
1556984809.410344;57;0;0;1556984803.98652;4.403301892085986;-75.1471950018358;963.3562;-1;-1;10;65;-9999;1556984809.406611;27.83228302001953;-2.590400695800781;29.4361572265625;322.9646606445312;329.7384948730469;125;86173.22756337501;0.0167694091796875;0.994537353515625;-0.0714263916015625;86173.22051337501;-0.01207344080187423;0.008087221282243623;0.009471798732975819;86173.228082375;50.22456359863281;51.11575317382812;-414.6688537597656;86173.219537375;2.244087058021169;0.1448542097741802;-1.494468876770465;-0.0002344977110624313;-0.0006210887804627419;-0.001407389063388109;0.005685895681381226;-0.001805305480957031;0.003325939178466797;2;-0.3418997824192047;-0.5876874923706055;0.6378709077835083;0.3617302179336548;0.01100719999521971;0.9970884919166565;-0.07545589655637741;27.83228302001953;-2.590400695800781;29.4361572265625;2;86170.0171615;2;0;1556984806.204619;86170.604897;0;0.1453247;90.53242;3232235846;179021379;2;1;0.37;-17.76038;-22.10949;0
1556984809.420489;58;0;0;1556984803.98652;4.403301892085986;-75.1471950018358;963.3562;-1;-1;10;65;-9999;1556984809.406611;27.83228302001953;-2.590400695800781;29.4361572265625;322.9646606445312;329.7384948730469;125;86173.23757337501;0.016845703125;0.9934234619140625;-0.071441650390625;86173.23052337501;-0.01118021657226165;0.008361260558412777;0.008965798125860763;86173.228082375;50.22456359863281;51.11575317382812;-414.6688537597656;86173.22954637501;2.244110478076045;0.1448903705071211;-1.494472294746352;-0.0008110720664262772;0.001043387223035097;-0.0005706236697733402;0.005668491125106812;-0.002843141555786133;0.003931760787963867;2;-0.3419048488140106;-0.5876864790916443;0.6378676891326904;0.3617326617240906;0.01100932341068983;0.9970887303352356;-0.07545135170221329;27.78792190551758;-2.561668395996094;29.4910888671875;2;86173.227441375;2;0;1556984809.414899;86170.604897;0;0.1453247;90.53242;3232235846;179021379;2;1;0.37;-17.76038;-21.31654;0
1556984809.430515;59;0;0;1556984803.98652;4.403301892085986;-75.1471950018358;963.3562;-1;-1;10;65;-9999;1556984809.406611;27.83228302001953;-2.590400695800781;29.4361572265625;322.9646606445312;329.7384948730469;125;86173.247582375;0.01666259765625;0.9940032958984375;-0.071380615234375;86173.240563375;-0.009852098136639134;0.006767092329891344;0.007791876717353835;86173.247552375;50.25410461425781;51.23851013183594;-414.6336975097656;86173.23958737501;2.244124791781876;0.1448956298555161;-1.49446955196319;0.000294107012450695;-0.002070084679871798;-0.0003237798810005188;0.005896717309951782;-0.003453254699707031;0.003887832164764404;2;-0.3419018983840942;-0.5876873731613159;0.6378700733184814;0.3617297112941742;0.0110100107267499;0.9970885515213013;-0.07545328885316849;27.78792190551758;-2.561668395996094;29.4910888671875;2;86173.227441375;2;0;1556984809.414899;86170.604897;0;0.1453247;90.53242;3232235846;179021379;2;1;0.37;-17.76038;-21.31654;0
1556984809.441481;60;0;0;1556984803.98652;4.403301892085986;-75.1471950018358;963.3562;-1;-1;10;65;-9999;1556984809.432932;27.86859893798828;-2.536460876464844;29.46697998046875;322.9645385742188;329.7383728027344;125;86173.257623375;0.0170440673828125;0.993927001953125;-0.071868896484375;86173.250573375;-0.01055597161274708;0.006113286282276891;0.009590842033702361;86173.247552375;50.25410461425781;51.23851013183594;-414.6336975097656;86173.24959637501;2.244140957571175;0.1449116619314344;-1.494463351114496;0.001588906161487103;0.0008993567898869514;-0.000287146307528019;0.005619704723358154;-0.003284811973571777;0.004048049449920654;2;-0.3419015109539032;-0.5876844525337219;0.637872576713562;0.3617305755615234;0.01101232506334782;0.9970880746841431;-0.07546067982912064;27.86859893798828;-2.536460876464844;29.46697998046875;2;86173.227441375;2;0;1556984809.414899;86170.604897;0;0.1453247;90.53242;3232235846;179021379;2;1;0.37;-17.76038;-22.23143;0
1556984809.450519;61;0;0;1556984803.98652;4.403301892085986;-75.1471950018358;963.3562;-1;-1;10;65;-9999;1556984809.432932;27.86859893798828;-2.536460876464844;29.46697998046875;322.9645385742188;329.7383728027344;125;86173.26763237501;0.0171966552734375;0.994415283203125;-0.0728759765625;86173.260583375;-0.009257680581333447;0.005961219784033367;0.007048854773221727;86173.267022375;49.96630859375;50.99868774414062;-414.726806640625;86173.25960637501;2.244126729465;0.1448947702792092;-1.494463776475899;-0.000732039101421833;-0.0001403414644300938;-0.0005545276217162609;0.005971968173980713;-0.003040671348571777;0.003361403942108154;2;-0.3419003784656525;-0.5876851081848145;0.6378728151321411;0.3617301881313324;0.01101102400571108;0.9970880746841431;-0.07546068727970123;27.86859893798828;-2.536460876464844;29.46697998046875;2;86173.227441375;2;0;1556984809.414899;86170.604897;0;0.1453247;90.53242;3232235846;179021379;2;1;0.37;-17.76038;-22.23143;0
