loggingTime;loggingSample;identifierForVendor;deviceID;locationTimestamp_since1970;locationLatitude;locationLongitude;locationAltitude;locationSpeed;locationCourse;locationVerticalAccuracy;locationHorizontalAccuracy;locationFloor;locationHeadingTimestamp_since1970;locationHeadingX;locationHeadingY;locationHeadingZ;locationTrueHeading;locationMagneticHeading;locationHeadingAccuracy;accelerometerTimestamp_sinceReboot;accelerometerAccelerationX;accelerometerAccelerationY;accelerometerAccelerationZ;gyroTimestamp_sinceReboot;gyroRotationX;gyroRotationY;gyroRotationZ;magnetometerTimestamp_sinceReboot;magnetometerX;magnetometerY;magnetometerZ;motionTimestamp_sinceReboot;motionYaw;motionRoll;motionPitch;motionRotationRateX;motionRotationRateY;motionRotationRateZ;motionUserAccelerationX;motionUserAccelerationY;motionUserAccelerationZ;motionAttitudeReferenceFrame;motionQuaternionX;motionQuaternionY;motionQuaternionZ;motionQuaternionW;motionGravityX;motionGravityY;motionGravityZ;motionMagneticFieldX;motionMagneticFieldY;motionMagneticFieldZ;motionMagneticFieldCalibrationAccuracy;activityTimestamp_sinceReboot;activity;activityActivityConfidence;activityActivityStartDate;altimeterTimestamp_sinceReboot;altimeterReset;altimeterRelativeAltitude;altimeterPressure;IP_en0;IP_pdp_ip0;deviceOrientation;batteryState;batteryLevel;avAudioRecorderPeakPower;avAudioRecorderAveragePower;label
1556984863.481011;1;0;0;1556984862.582669;4.403336521593463;-75.14722932171884;964.6492;-1;-1;10;65;-9999;1556984863.45428;-19.62479400634766;30.91063690185547;-6.651031494140625;10.09695625305176;16.87080574035645;30;86227.26550125;-0.98455810546875;-0.0026397705078125;-0.143768310546875;86227.25845225001;-0.008511729160002254;0.006561496293737227;0.009475793474610937;86227.25704825;3.651535034179688;68.72724914550781;-413.4234619140625;86227.25747525001;-1.865313810087708;-1.435092096588379;0.004360614461948807;0.001343972980976105;-0.002270308788865805;0.0006729969754815102;0.006149053573608398;0.001904100179672241;-0.009196281433105469;2;-0.5271581411361694;-0.3930151164531708;-0.6060049533843994;0.4476622641086578;-0.9907969832420349;-0.004360600840300322;-0.1352868229150772;-19.62479400634766;30.91063690185547;-6.651031494140625;2;86225.15661525;2;0;1556984861.344072;86223.92596199999;0;0.2166748;90.53164;3232235846;179021379;3;1;0.36;-15.88777;-17.3335;0
1556984863.482626;2;0;0;1556984862.582669;4.403336521593463;-75.14722932171884;964.6492;-1;-1;10;65;-9999;1556984863.480544;-19.77978324890137;31.08507537841797;-6.86187744140625;10.0959358215332;16.86978530883789;30;86227.27551125;-0.98455810546875;-0.0016937255859375;-0.1428375244140625;86227.26846125;-0.009579124124906012;0.008906409633551996;0.008581237664453321;86227.25704825;3.651535034179688;68.72724914550781;-413.4234619140625;86227.26748525001;-1.865307939167292;-1.435086796512518;0.004360799890049229;0.001194795593619347;0.0005055610090494156;-0.0001822579652070999;0.006377220153808594;0.002041608095169067;-0.008229732513427734;2;-0.527155339717865;-0.3930155336856842;-0.606005072593689;0.4476650357246399;-0.9907962679862976;-0.00436078617349267;-0.1352920830249786;-19.62479400634766;30.91063690185547;-6.651031494140625;2;86225.15661525;2;0;1556984861.344072;86223.92596199999;0;0.2166748;90.53164;3232235846;179021379;3;1;0.36;-15.88777;-17.3335;0
1556984863.483727;3;0;0;1556984862.582669;4.403336521593463;-75.14722932171884;964.6492;-1;-1;10;65;-9999;1556984863.480544;-19.77978324890137;31.08507537841797;-6.86187744140625;10.0959358215332;16.86978530883789;30;86227.28552125;-0.985260009765625;-0.0021820068359375;-0.145050048828125;86227.27847125;-0.01054558528449577;0.007260842395992035;0.008189220351993657;86227.27648825001;3.528274536132812;68.94297790527344;-413.9206237792969;86227.27749525;-1.865310803121001;-1.435076788089447;0.004355922656486272;-0.0008281413465738297;9.037414565682411e-05;0.000395381823182106;0.006208062171936035;0.002708107233047485;-0.00789940357208252;2;-0.5271539688110352;-0.393011063337326;-0.6060073971748352;0.4476674199104309;-0.9907948970794678;-0.004355908837169409;-0.1353019922971725;-19.66447448730469;31.09262847900391;-6.973052978515625;2;86225.15661525;2;0;1556984861.344072;86223.92596199999;0;0.2166748;90.53164;3232235846;179021379;3;1;0.36;-15.88777;-17.3335;0
1556984863.484734;4;0;0;1556984862.582669;4.403336521593463;-75.14722932171884;964.6492;-1;-1;10;65;-9999;1556984863.480544;-19.77978324890137;31.08507537841797;-6.86187744140625;10.0959358215332;16.86978530883789;30;86227.29553125;-0.9845428466796875;-0.0019073486328125;-0.1446990966796875;86227.28851225;-0.008405469032508092;0.005955893461853208;0.006995058919202127;86227.29595825;3.367446899414062;68.99493408203125;-413.7754821777344;86227.28753525001;-1.865300518307286;-1.435067363618632;0.004354169667368054;0.001515468582510948;0.001161784864962101;0.0001454846933484077;0.005520105361938477;0.001958698034286499;-0.009995758533477783;2;-0.527149498462677;-0.3930111229419708;-0.6060072183609009;0.4476728141307831;-0.9907935857772827;-0.004354156088083982;-0.1353113204240799;-19.66447448730469;31.09262847900391;-6.973052978515625;2;86225.15661525;2;0;1556984861.344072;86223.92596199999;0;0.2166748;90.53164;3232235846;179021379;3;1;0.36;-15.88777;-17.3335;0
1556984863.487887;5;0;0;1556984862.582669;4.403336521593463;-75.14722932171884;964.6492;-1;-1;10;65;-9999;1556984863.480544;-19.77978324890137;31.08507537841797;-6.86187744140625;10.0959358215332;16.86978530883789;30;86227.30557125001;-0.985107421875;-0.0022125244140625;-0.143646240234375;86227.29852125001;-0.01123188189740919;0.006383863449028942;0.008254734114809606;86227.29595825;3.367446899414062;68.99493408203125;-413.7754821777344;86227.29754525001;-1.865292186384363;-1.435066745154214;0.004352306278110816;0.001351151615381241;0.0002288799732923508;0.0002613328397274017;0.00632864236831665;0.002536654472351074;-0.009171009063720703;2;-0.5271480679512024;-0.3930126428604126;-0.6060051918029785;0.447676032781601;-0.9907935857772827;-0.004352292511612177;-0.1353119611740112;-19.77978324890137;31.08507537841797;-6.86187744140625;2;86225.15661525;2;0;1556984861.344072;86223.92596199999;0;0.2166748;90.53164;3232235846;179021379;3;1;0.36;-15.88777;-17.3335;0
1556984863.497901;6;0;0;1556984862.582669;4.403336521593463;-75.14722932171884;964.6492;-1;-1;10;65;-9999;1556984863.480544;-19.77978324890137;31.08507537841797;-6.86187744140625;10.0959358215332;16.86978530883789;30;86227.31558125;-0.9857635498046875;-0.003204345703125;-0.14447021484375;86227.30853125;-0.009857424458819292;0.006337790762170571;0.009327721718002531;86227.31542825;3.695236206054688;68.79794311523438;-413.5940856933594;86227.30755425;-1.865296074924538;-1.435078721369908;0.004354256447581478;-0.0004728063941001892;-0.002067859284579754;-0.0007039681077003479;0.005689442157745361;0.002065569162368774;-0.008420109748840332;2;-0.5271520614624023;-0.3930148482322693;-0.6060032248497009;0.4476718604564667;-0.9907950758934021;-0.004354242701083422;-0.1353000700473785;-19.77978324890137;31.08507537841797;-6.86187744140625;2;86225.15661525;2;0;1556984861.344072;86224.87852899999;0;0.2166748;90.53164;3232235846;179021379;3;1;0.36;-15.88777;-18.13011;0
1556984863.507867;7;0;0;1556984862.582669;4.403336521593463;-75.14722932171884;964.6492;-1;-1;10;65;-9999;1556984863.504582;-19.56686401367188;30.96851348876953;-6.7412109375;10.0960807800293;16.86993026733398;30;86227.32559025001;-0.9855804443359375;-0.002349853515625;-0.14532470703125;86227.31857125;-0.009512811413763039;0.007263505557082114;0.008768990521303907;86227.31542825;3.695236206054688;68.79794311523438;-413.5940856933594;86227.31759525;-1.865293185007558;-1.435078770052251;0.004352180961212354;0.001085941679775715;-5.424302071332932e-05;-0.0001300564035773277;0.004926502704620361;0.001224279403686523;-0.009594917297363281;2;-0.5271519422531128;-0.3930150270462036;-0.6060022115707397;0.4476733803749084;-0.9907951951026917;-0.004352167248725891;-0.1353000402450562;-19.56686401367188;30.96851348876953;-6.7412109375;2;86225.15661525;2;0;1556984861.344072;86224.87852899999;0;0.2166748;90.53164;3232235846;179021379;3;1;0.36;-15.88777;-18.13011;0
1556984863.522621;8;0;0;1556984862.582669;4.403336521593463;-75.14722932171884;964.6492;-1;-1;10;65;-9999;1556984863.504582;-19.56686401367188;30.96851348876953;-6.7412109375;10.0960807800293;16.86993026733398;30;86227.33560025001;-0.985137939453125;-0.00244140625;-0.1439056396484375;86227.32858125001;-0.008052067555854577;0.006416886646545925;0.008199872996353974;86227.33489825;3.53704833984375;68.57023620605469;-413.4832763671875;86227.32760525;-1.865292763346717;-1.435074648406281;0.004348671807412587;-0.0001528281718492508;5.128420889377594e-05;-0.0004362044855952263;0.005337893962860107;0.002029508352279663;-0.01003336906433105;2;-0.5271514058113098;-0.3930131494998932;-0.6060025095939636;0.4476752281188965;-0.9907946586608887;-0.00434865802526474;-0.1353041231632233;-19.56686401367188;30.96851348876953;-6.7412109375;2;86225.15661525;2;0;1556984861.344072;86224.87852899999;0;0.2166748;90.53164;3232235846;179021379;3;1;0.36;-15.88777;-18.96948;0
1556984863.528012;9;0;0;1556984862.582669;4.403336521593463;-75.14722932171884;964.6492;-1;-1;10;65;-9999;1556984863.504582;-19.56686401367188;30.96851348876953;-6.7412109375;10.0960807800293;16.86993026733398;30;86227.34564025;-0.9854583740234375;-0.002349853515625;-0.1439361572265625;86227.33859125001;-0.009471532416866811;0.007272560304788384;0.008399343762000909;86227.33489825;3.53704833984375;68.57023620605469;-413.4832763671875;86227.33761425001;-1.865295218890545;-1.435068288124213;0.004350973936883834;-4.20399010181427e-05;0.0003524874337017536;-0.00057974923402071;0.005657434463500977;0.001833438873291016;-0.008669018745422363;2;-0.5271494388580322;-0.3930117785930634;-0.6060051918029785;0.4476751387119293;-0.9907938241958618;-0.004350960254669189;-0.1353104263544083;-19.69150161743164;30.82204437255859;-6.67266845703125;2;86225.15661525;2;0;1556984861.344072;86224.87852899999;0;0.2166748;90.53164;3232235846;179021379;3;1;0.36;-15.88777;-18.96948;0
1556984863.537898;10;0;0;1556984862.582669;4.403336521593463;-75.14722932171884;964.6492;-1;-1;10;65;-9999;1556984863.53037;-19.69150161743164;30.82204437255859;-6.67266845703125;10.09619522094727;16.87004470825195;30;86227.35565025;-0.9847869873046875;-0.002227783203125;-0.144317626953125;86227.34860125001;-0.009553824094550259;0.006850449272010824;0.008700280965179863;86227.35436825;3.693954467773438;68.38714599609375;-413.6961059570312;86227.34762425;-1.865296741761506;-1.435066852006334;0.004356694824928636;0.0008435593917965889;-0.0001528970897197723;-0.0002246685326099396;0.005611538887023926;0.002174824476242065;-0.008942246437072754;2;-0.5271480083465576;-0.3930127918720245;-0.6060070395469666;0.4476734697818756;-0.9907935857772827;-0.004356680903583765;-0.1353118419647217;-19.69150161743164;30.82204437255859;-6.67266845703125;2;86225.15661525;2;0;1556984861.344072;86224.87852899999;0;0.2166748;90.53164;3232235846;179021379;3;1;0.36;-15.88777;-18.96948;0
1556984863.547993;11;0;0;1556984862.582669;4.403336521593463;-75.14722932171884;964.6492;-1;-1;10;65;-9999;1556984863.53037;-19.69150161743164;30.82204437255859;-6.67266845703125;10.09619522094727;16.87004470825195;30;86227.36566025001;-0.985870361328125;-0.0021209716796875;-0.1440277099609375;86227.35864125;-0.008347412120744364;0.008661665129373714;0.008281099409601391;86227.35436825;3.693954467773438;68.38714599609375;-413.6961059570312;86227.35766425001;-1.865298846462705;-1.435063421031354;0.004357234756912209;7.327646017074585e-06;0.0001637530513107777;0.0007700221613049507;0.005855202674865723;0.002099096775054932;-0.008877992630004883;2;-0.5271472930908203;-0.393011599779129;-0.6060084700584412;0.4476732611656189;-0.990792989730835;-0.004357221070677042;-0.1353152245283127;-19.56339073181152;30.78815460205078;-6.85986328125;2;86225.15661525;2;0;1556984861.344072;86224.87852899999;0;0.2166748;90.53164;3232235846;179021379;3;1;0.36;-15.88777;-19.85748;0
1556984863.557953;12;0;0;1556984862.582669;4.403336521593463;-75.14722932171884;964.6492;-1;-1;10;65;-9999;1556984863.554175;-19.56339073181152;30.78815460205078;-6.85986328125;10.09646606445312;16.87031555175781;30;86227.37570025001;-0.9858856201171875;-0.00177001953125;-0.1441802978515625;86227.36865125;-0.008952482320410368;0.007689345015385785;0.00773861349555225;86227.37383925001;3.559219360351562;68.88072204589844;-413.6817016601562;86227.36767425001;-1.865301548772205;-1.435055981393526;0.004361713035751929;-0.0006045298650860786;9.465776383876801e-05;-6.485264748334885e-05;0.005243897438049316;0.002286642789840698;-0.008901119232177734;2;-0.5271445512771606;-0.3930105865001678;-0.6060119271278381;0.4476727545261383;-0.9907920360565186;-0.004361699335277081;-0.1353226006031036;-19.56339073181152;30.78815460205078;-6.85986328125;2;86225.15661525;2;0;1556984861.344072;86224.87852899999;0;0.2166748;90.53164;3232235846;179021379;3;1;0.36;-15.88777;-19.85748;0
1556984863.568034;13;0;0;1556984862.582669;4.403336521593463;-75.14722932171884;964.6492;-1;-1;10;65;-9999;1556984863.554175;-19.56339073181152;30.78815460205078;-6.85986328125;10.09646606445312;16.87031555175781;30;86227.38571025;-0.98504638671875;-0.0023193359375;-0.1446685791015625;86227.37866025;-0.008911735955732155;0.006761766007711186;0.007173224396128428;86227.37383925001;3.559219360351562;68.88072204589844;-413.6817016601562;86227.37768425001;-1.865302722038371;-1.435043378136677;0.004367291787463211;-0.0006175795570015907;0.001531699206680059;-0.000380437821149826;0.005074262619018555;0.002460092306137085;-0.008797109127044678;2;-0.5271397233009338;-0.3930091261863708;-0.6060165762901306;0.4476733505725861;-0.9907902479171753;-0.004367277957499027;-0.1353350728750229;-19.65642356872559;31.08972930908203;-6.83184814453125;2;86225.15661525;2;0;1556984861.344072;86224.87852899999;0;0.2166748;90.53164;3232235846;179021379;3;1;0.36;-15.88777;-20.65034;0
1556984863.578563;14;0;0;1556984862.582669;4.403336521593463;-75.14722932171884;964.6492;-1;-1;10;65;-9999;1556984863.554175;-19.56339073181152;30.78815460205078;-6.85986328125;10.09646606445312;16.87031555175781;30;86227.39572025;-0.98486328125;-0.0025634765625;-0.14483642578125;86227.38870125001;-0.009960488793005359;0.006614226883320796;0.009573531486616845;86227.39327825001;3.599456787109375;68.95950317382812;-414.0352172851562;86227.38772425;-1.865298742659897;-1.435044129949086;0.004362175953664204;0.0002733683213591576;-0.000664091669023037;0.001325675286352634;0.006325602531433105;0.001966685056686401;-0.009606599807739258;2;-0.5271403193473816;-0.3930087983608246;-0.6060144901275635;0.4476757645606995;-0.9907903671264648;-0.004362162202596664;-0.1353343427181244;-19.65642356872559;31.08972930908203;-6.83184814453125;2;86225.15661525;2;0;1556984861.344072;86224.87852899999;0;0.2166748;90.53164;3232235846;179021379;3;1;0.36;-15.88777;-20.65034;0
1556984863.58808;15;0;0;1556984862.582669;4.403336521593463;-75.14722932171884;964.6492;-1;-1;10;65;-9999;1556984863.580782;-19.64833831787109;31.10970306396484;-7.019073486328125;10.09624862670898;16.87009811401367;30;86227.40573025;-0.9851531982421875;-0.0012969970703125;-0.1451416015625;86227.39871025001;-0.008930111767253701;0.008329302625331825;0.008154332941713619;86227.39327825001;3.599456787109375;68.95950317382812;-414.0352172851562;86227.39773425;-1.865297464415165;-1.435035448951832;0.004364719432199494;-0.0005591362714767456;0.0006312699988484383;-0.0005143024027347565;0.005836188793182373;0.002014994621276855;-0.009506344795227051;2;-0.5271368622779846;-0.3930079638957977;-0.606016993522644;0.4476771950721741;-0.9907891750335693;-0.004364705644547939;-0.1353429406881332;-19.64833831787109;31.10970306396484;-7.019073486328125;2;86225.15661525;2;0;1556984861.344072;86224.87852899999;0;0.2166748;90.53164;3232235846;179021379;3;1;0.36;-15.88777;-21.34927;0
1556984863.606767;16;0;0;1556984862.582669;4.403336521593463;-75.14722932171884;964.6492;-1;-1;10;65;-9999;1556984863.604486;-19.72469329833984;31.07913208007812;-6.9212646484375;10.09573745727539;16.86958694458008;30;86227.41577025001;-0.9851837158203125;-0.0024566650390625;-0.14422607421875;86227.40872025001;-0.009632121030598588;0.006534598366727427;0.007589476474507813;86227.41274925001;3.477798461914062;69.00186157226562;-413.8901977539062;86227.40774425;-1.865289263393085;-1.435024825951342;0.004365619522092876;0.001148498617112637;0.0008837515488266945;0.0004331739619374275;0.005621016025543213;0.002870410680770874;-0.009617745876312256;2;-0.5271317958831787;-0.3930080533027649;-0.6060181856155396;0.4476816356182098;-0.9907878637313843;-0.004365605767816305;-0.1353534758090973;-19.64833831787109;31.10970306396484;-7.019073486328125;2;86225.15661525;2;0;1556984861.344072;86224.87852899999;0;0.2166748;90.53164;3232235846;179021379;3;1;0.36;-15.88777;-21.34927;0
1556984863.608793;17;0;0;1556984862.582669;4.403336521593463;-75.14722932171884;964.6492;-1;-1;10;65;-9999;1556984863.604486;-19.72469329833984;31.07913208007812;-6.9212646484375;10.09573745727539;16.86958694458008;30;86227.42578025001;-0.9853973388671875;-0.0025787353515625;-0.1448211669921875;86227.41873025001;-0.01005503101170317;0.0072999908640162;0.009892045552990322;86227.41274925001;3.477798461914062;69.00186157226562;-413.8901977539062;86227.41775325;-1.865288638972321;-1.435026694998939;0.00436081504927447;2.78400257229805e-05;-0.0006251959130167961;0.0004494190216064453;0.005453348159790039;0.001751720905303955;-0.008749842643737793;2;-0.5271333456039429;-0.3930071592330933;-0.6060165762901306;0.447682648897171;-0.9907880425453186;-0.004360801074653864;-0.1353516131639481;-19.72469329833984;31.07913208007812;-6.9212646484375;2;86225.15661525;2;0;1556984861.344072;86224.87852899999;0;0.2166748;90.53164;3232235846;179021379;3;1;0.36;-15.88777;-22.05695;0
1556984863.618068;18;0;0;1556984862.582669;4.403336521593463;-75.14722932171884;964.6492;-1;-1;10;65;-9999;1556984863.604486;-19.72469329833984;31.07913208007812;-6.9212646484375;10.09573745727539;16.86958694458008;30;86227.43578925001;-0.985015869140625;-0.002227783203125;-0.1443328857421875;86227.42877025;-0.01024038702357269;0.006086122039158083;0.00806058967134283;86227.43221925001;3.441314697265625;68.75863647460938;-413.72119140625;86227.42779425;-1.865291533454079;-1.435028883086809;0.004354186410212227;-0.0002064667642116547;-0.000988679938018322;-5.386769771575928e-06;0.005255460739135742;0.002004474401473999;-0.009408354759216309;2;-0.5271360874176025;-0.3930048644542694;-0.6060153245925903;0.4476830363273621;-0.9907883405685425;-0.004354172851890326;-0.1353494375944138;-19.72469329833984;31.07913208007812;-6.9212646484375;2;86225.15661525;2;0;1556984861.344072;86224.87852899999;0;0.2166748;90.53164;3232235846;179021379;3;1;0.36;-15.88777;-22.05695;0
1556984863.628204;19;0;0;1556984862.582669;4.403336521593463;-75.14722932171884;964.6492;-1;-1;10;65;-9999;1556984863.604486;-19.72469329833984;31.07913208007812;-6.9212646484375;10.09573745727539;16.86958694458008;30;86227.44583025;-0.9850006103515625;-0.001617431640625;-0.1443939208984375;86227.43878025;-0.01104040061503249;0.007600395434977138;0.007892277890449823;86227.43221925001;3.441314697265625;68.75863647460938;-413.72119140625;86227.43780425;-1.865295867982089;-1.435036577882651;0.00434828239633031;0.000941089354455471;-0.002135436981916428;0.001051356084644794;0.005988895893096924;0.002090126276016235;-0.008988499641418457;2;-0.5271405577659607;-0.3930037021636963;-0.6060131788253784;0.4476819038391113;-0.990789532661438;-0.004348268732428551;-0.1353418380022049;-19.74415397644043;30.96950531005859;-6.900848388671875;2;86225.15661525;2;0;1556984861.344072;86224.87852899999;0;0.2166748;90.53164;3232235846;179021379;3;1;0.36;-15.88777;-22.05695;0
1556984863.638145;20;0;0;1556984862.582669;4.403336521593463;-75.14722932171884;964.6492;-1;-1;10;65;-9999;1556984863.630614;-19.74415397644043;30.96950531005859;-6.900848388671875;10.09599494934082;16.86984443664551;30;86227.45583925;-0.986053466796875;-0.0020599365234375;-0.1446075439453125;86227.44879025001;-0.007679757635461499;0.006757771266076067;0.008184426662031515;86227.45168925001;3.748458862304688;68.41926574707031;-413.6563110351562;86227.44781325001;-1.865293152880786;-1.435041682452625;0.004350466529037514;0.0009269788861274719;-0.0009075147099792957;-0.0002047950401902199;0.005455434322357178;0.002580612897872925;-0.009146213531494141;2;-0.5271410942077637;-0.3930062055587769;-0.6060116291046143;0.4476810991764069;-0.9907901883125305;-0.004350452683866024;-0.135336771607399;-19.74415397644043;30.96950531005859;-6.900848388671875;2;86225.15661525;2;0;1556984861.344072;86224.87852899999;0;0.2166748;90.53164;3232235846;179021379;3;1;0.36;-15.88777;-22.53272;0
1556984863.648204;21;0;0;1556984862.582669;4.403336521593463;-75.14722932171884;964.6492;-1;-1;10;65;-9999;1556984863.630614;-19.74415397644043;30.96950531005859;-6.900848388671875;10.09599494934082;16.86984443664551;30;86227.46584925;-0.985137939453125;-0.002105712890625;-0.14495849609375;86227.45880025001;-0.008435030120607971;0.005895972337326426;0.009890447656336275;86227.45168925001;3.748458862304688;68.41926574707031;-413.6563110351562;86227.45782325001;-1.86529052977151;-1.435038207789122;0.004345258882141168;-0.0005089975893497467;5.308724939823151e-05;5.992315709590912e-05;0.004951357841491699;0.002331256866455078;-0.009112000465393066;2;-0.5271406769752502;-0.3930045664310455;-0.6060109734535217;0.4476840198040009;-0.9907897710800171;-0.004345245193690062;-0.135340228676796;-19.50653839111328;30.73830413818359;-6.836029052734375;2;86225.15661525;2;0;1556984861.344072;86224.87852899999;0;0.2166748;90.53164;3232235846;179021379;3;1;0.36;-15.88777;-22.53272;0
1556984863.658201;22;0;0;1556984862.582669;4.403336521593463;-75.14722932171884;964.6492;-1;-1;10;65;-9999;1556984863.654444;-19.69203758239746;30.62058258056641;-6.890533447265625;10.09537696838379;16.86922645568848;30;86227.47585925;-0.9855499267578125;-0.0016021728515625;-0.145355224609375;86227.46884025;-0.009411078660122012;0.007037669496643395;0.008481635439684358;86227.47115925001;3.55218505859375;68.25393676757812;-413.7086791992188;86227.46786325;-1.865286075883947;-1.435022595216874;0.004346801026538748;0.000858657993376255;0.001885537523776293;-0.0009919740259647369;0.005620598793029785;0.002332776784896851;-0.009646117687225342;2;-0.5271347761154175;-0.3930026590824127;-0.6060143113136292;0.4476878643035889;-0.9907875061035156;-0.004346787463873625;-0.135355681180954;-19.50653839111328;30.73830413818359;-6.836029052734375;2;86225.15661525;2;0;1556984861.344072;86224.87852899999;0;0.2166748;90.53164;3232235846;179021379;3;1;0.36;-15.88777;-23.42914;0
1556984863.668805;23;0;0;1556984862.582669;4.403336521593463;-75.14722932171884;964.6492;-1;-1;10;65;-9999;1556984863.654444;-19.69203758239746;30.62058258056641;-6.890533447265625;10.09537696838379;16.86922645568848;30;86227.48589925001;-0.9849700927734375;-0.0021820068359375;-0.1450653076171875;86227.47885025;-0.01062255063999906;0.007068828481397322;0.008539426035339078;86227.47115925001;3.55218505859375;68.25393676757812;-413.7086791992188;86227.47787325;-1.865279554446472;-1.435021442079072;0.004347460483656585;0.001367854885756969;-0.001192277297377586;-0.000100613571703434;0.005422115325927734;0.00291326642036438;-0.01014846563339233;2;-0.5271329879760742;-0.3930043280124664;-0.606013298034668;0.4476899206638336;-0.9907873272895813;-0.004347446840256453;-0.1353568285703659;-19.69203758239746;30.62058258056641;-6.890533447265625;2;86225.15661525;2;0;1556984861.344072;86224.87852899999;0;0.2166748;90.53164;3232235846;179021379;3;1;0.36;-15.88777;-23.42914;0
1556984863.69185;24;0;0;1556984862.582669;4.403336521593463;-75.14722932171884;964.6492;-1;-1;10;65;-9999;1556984863.681084;-19.67230606079102;30.89461517333984;-6.877593994140625;10.09575080871582;16.86960029602051;30;86227.49590925001;-0.98455810546875;-0.0017547607421875;-0.143890380859375;86227.48885925001;-0.01082761404393516;0.005916212361611027;0.008244081470449289;86227.49059925;3.601760864257812;68.62269592285156;-413.7393188476562;86227.48788325001;-1.865285519719281;-1.435000429663953;0.004343940084983023;-0.0009634289890527725;0.002568317111581564;0.001043227501213551;0.006090760231018066;0.00226891040802002;-0.009563088417053223;2;-0.5271285772323608;-0.3929969966411591;-0.6060194969177246;0.4476931989192963;-0.9907845258712769;-0.004343926440924406;-0.1353776454925537;-19.69203758239746;30.62058258056641;-6.890533447265625;2;86225.15661525;2;0;1556984861.344072;86224.87852899999;0;0.2166748;90.53164;3232235846;179021379;3;1;0.36;-15.88777;-24.41763;0
1556984863.696006;25;0;0;1556984862.582669;4.403336521593463;-75.14722932171884;964.6492;-1;-1;10;65;-9999;1556984863.681084;-19.67230606079102;30.89461517333984;-6.877593994140625;10.09575080871582;16.86960029602051;30;86227.50591925;-0.984527587890625;-0.0020751953125;-0.1438751220703125;86227.49890025001;-0.009330384879092612;0.006549778384940879;0.007796137775097962;86227.49059925;3.601760864257812;68.62269592285156;-413.7393188476562;86227.49792325;-1.865288919052462;-1.435007885507227;0.004345810127032709;-0.0009114965796470642;-0.00186557974666357;-2.54996120929718e-05;0.006152749061584473;0.002575933933258057;-0.008334517478942871;2;-0.5271310806274414;-0.3929983377456665;-0.6060186624526978;0.4476902186870575;-0.990785539150238;-0.004345796536654234;-0.1353702545166016;-19.67230606079102;30.89461517333984;-6.877593994140625;2;86225.15661525;2;0;1556984861.344072;86224.87852899999;0;0.2166748;90.53164;3232235846;179021379;3;1;0.36;-15.88777;-24.41763;0
1556984863.698328;26;0;0;1556984862.582669;4.403336521593463;-75.14722932171884;964.6492;-1;-1;10;65;-9999;1556984863.681084;-19.67230606079102;30.89461517333984;-6.877593994140625;10.09575080871582;16.86960029602051;30;86227.51592925;-0.985260009765625;-0.0023956298828125;-0.1446990966796875;86227.50890925;-0.0089905655239985;0.007847270468027483;0.00720118758757426;86227.51006925;3.431671142578125;68.86610412597656;-413.865966796875;86227.50793325;-1.865280740859973;-1.434999400635104;0.004352993281076577;0.0007053418084979057;0.001475016120821238;-0.001546258106827736;0.006197333335876465;0.002216935157775879;-0.008615970611572266;2;-0.5271252989768982;-0.3930007517337799;-0.606020450592041;0.4476924240589142;-0.9907843470573425;-0.004352979362010956;-0.1353786587715149;-19.67230606079102;30.89461517333984;-6.877593994140625;2;86225.15661525;2;0;1556984861.344072;86224.87852899999;0;0.2166748;90.53164;3232235846;179021379;3;1;0.36;-15.88777;-24.41763;0
1556984863.708289;27;0;0;1556984862.582669;4.403336521593463;-75.14722932171884;964.6492;-1;-1;10;65;-9999;1556984863.704575;-19.79595756530762;31.04287719726562;-6.955780029296875;10.09531211853027;16.86916160583496;30;86227.52596925001;-0.985198974609375;-0.002227783203125;-0.1443328857421875;86227.51891925001;-0.009581520969887083;0.006442452993010685;0.00820173720911703;86227.51006925;3.431671142578125;68.86610412597656;-413.865966796875;86227.51794325;-1.865280284067876;-1.434996620698183;0.004357668568150677;-7.949117571115494e-05;-0.0002174228429794312;-0.001102575566619635;0.005647540092468262;0.002068996429443359;-0.009391188621520996;2;-0.5271232724189758;-0.3930017054080963;-0.60602205991745;0.4476920068264008;-0.9907841086387634;-0.004357654601335526;-0.1353814303874969;-19.79595756530762;31.04287719726562;-6.955780029296875;2;86225.15661525;2;0;1556984861.344072;86224.87852899999;0;0.2166748;90.53164;3232235846;179021379;3;1;0.36;-15.88777;-25.02536;0
1556984863.718156;28;0;0;1556984862.582669;4.403336521593463;-75.14722932171884;964.6492;-1;-1;10;65;-9999;1556984863.704575;-19.79595756530762;31.04287719726562;-6.955780029296875;10.09531211853027;16.86916160583496;30;86227.53597925001;-0.9852752685546875;-0.0030517578125;-0.1441650390625;86227.52892925001;-0.01158954443180683;0.007022223162320936;0.00813382660132001;86227.52953925001;3.525421142578125;69.00320434570312;-413.868896484375;86227.52795225001;-1.865285985089993;-1.434998670387934;0.004354807816474819;3.86945903301239e-05;-0.0007906928658485413;0.0004651779308915138;0.005556285381317139;0.002035617828369141;-0.009011805057525635;2;-0.5271256566047668;-0.3929997980594635;-0.6060222387313843;0.4476906359195709;-0.9907844066619873;-0.004354794044047594;-0.1353794038295746;-19.79595756530762;31.04287719726562;-6.955780029296875;2;86225.15661525;2;0;1556984861.344072;86224.87852899999;0;0.2166748;90.53164;3232235846;179021379;3;1;0.36;-15.88777;-25.02536;0
1556984863.728312;29;0;0;1556984862.582669;4.403336521593463;-75.14722932171884;964.6492;-1;-1;10;65;-9999;1556984863.704575;-19.79595756530762;31.04287719726562;-6.955780029296875;10.09531211853027;16.86916160583496;30;86227.54598825;-0.985076904296875;-0.002410888671875;-0.1444091796875;86227.53896925;-0.01205053761649954;0.007638744954674279;0.009189769973536427;86227.52953925001;3.525421142578125;69.00320434570312;-413.868896484375;86227.53799325001;-1.865291203233299;-1.43499779451757;0.004348334881253967;0.0003758510574698448;-0.0006801714189350605;0.000695008784532547;0.005663037300109863;0.001403540372848511;-0.008812785148620605;2;-0.5271279215812683;-0.392996221780777;-0.6060222983360291;0.4476907849311829;-0.9907841086387634;-0.004348321352154016;-0.1353802531957626;-19.72369575500488;31.08899688720703;-6.92047119140625;2;86225.15661525;2;0;1556984861.344072;86224.87852899999;0;0.2166748;90.53164;3232235846;179021379;3;1;0.36;-15.88777;-18.89192;0
1556984863.738382;30;0;0;1556984862.582669;4.403336521593463;-75.14722932171884;964.6492;-1;-1;10;65;-9999;1556984863.730895;-19.72369575500488;31.08899688720703;-6.92047119140625;10.09639739990234;16.87024688720703;30;86227.55602925;-0.98529052734375;-0.0022125244140625;-0.14453125;86227.54897925;-0.01063906223875755;0.007756456674855782;0.007168164390057278;86227.54901025;3.648086547851562;68.467041015625;-413.7120056152344;86227.54800225001;-1.865300106460871;-1.434994892193564;0.004344218740396678;-0.0007191067561507225;-0.0004459675401449203;0.000170399434864521;0.005464315414428711;0.001811414957046509;-0.009145617485046387;2;-0.5271297097206116;-0.3929919898509979;-0.6060242652893066;0.4476897716522217;-0.9907837510108948;-0.004344204906374216;-0.135383129119873;-19.72369575500488;31.08899688720703;-6.92047119140625;2;86225.15661525;2;0;1556984861.344072;86224.87852899999;0;0.2166748;90.53164;3232235846;179021379;3;1;0.36;-15.88777;-18.89192;0
1556984863.748515;31;0;0;1556984862.582669;4.403336521593463;-75.14722932171884;964.6492;-1;-1;10;65;-9999;1556984863.730895;-19.72369575500488;31.08899688720703;-6.92047119140625;10.09639739990234;16.87024688720703;30;86227.56603825001;-0.98516845703125;-0.0022125244140625;-0.1432952880859375;86227.55898925;-0.01004970468952301;0.0060530988416411;0.008177768759306316;86227.54901025;3.648086547851562;68.467041015625;-413.7120056152344;86227.55801225001;-1.865307320229724;-1.434997594510165;0.004349418277868004;-0.0009723734110593796;-0.0009378534741699696;-0.0003465199843049049;0.005861401557922363;0.002137035131454468;-0.008995652198791504;2;-0.5271307826042175;-0.3929922580718994;-0.6060261726379395;0.4476856589317322;-0.9907841086387634;-0.004349404480308294;-0.1353804469108582;-19.5941276550293;30.68854522705078;-6.88763427734375;2;86225.15661525;2;0;1556984861.344072;86224.87852899999;0;0.2166748;90.53164;3232235846;179021379;3;1;0.36;-15.88777;-19.20691;0
1556984863.772454;32;0;0;1556984862.582669;4.403336521593463;-75.14722932171884;964.6492;-1;-1;10;65;-9999;1556984863.754889;-19.77659606933594;30.69023132324219;-6.753082275390625;10.09704971313477;16.87089920043945;30;86227.57604825;-0.9852294921875;-0.00262451171875;-0.14422607421875;86227.56902925001;-0.009749300118562076;0.007511712170677499;0.008096009713840883;86227.56848025;3.429443359375;68.44039916992188;-413.4685363769531;86227.56805325001;-1.865307305434706;-1.434984572504441;0.004346777843630187;-0.0001343069598078728;0.001525185536593199;0.001447489485144615;0.005676448345184326;0.002119153738021851;-0.007960200309753418;2;-0.5271273851394653;-0.3929885923862457;-0.6060291528701782;0.4476890563964844;-0.9907824993133545;-0.004346764180809259;-0.1353933662176132;-19.77659606933594;30.69023132324219;-6.753082275390625;2;86225.15661525;2;0;1556984861.344072;86224.87852899999;0;0.2166748;90.53164;3232235846;179021379;3;1;0.36;-15.88777;-19.73608;0
1556984863.802013;33;0;0;1556984862.582669;4.403336521593463;-75.14722932171884;964.6492;-1;-1;10;65;-9999;1556984863.781081;-19.76089096069336;30.82600402832031;-6.547332763671875;10.09692192077637;16.87077140808105;30;86227.58605825;-0.9854736328125;-0.001922607421875;-0.14483642578125;86227.57903925001;-0.01027847022716082;0.006149505273101969;0.008173241385453183;86227.56848025;3.429443359375;68.44039916992188;-413.4685363769531;86227.57806225;-1.865314879310416;-1.434974438647757;0.004358053613078612;-0.001179331913590431;0.001107069198042154;-0.002301708329468966;0.005675017833709717;0.001916795969009399;-0.009033560752868652;2;-0.5271232724189758;-0.3929877281188965;-0.6060357093811035;0.4476857483386993;-0.9907810688018799;-0.004358039703220129;-0.1354034096002579;-19.77659606933594;30.69023132324219;-6.753082275390625;2;86225.15661525;2;0;1556984861.344072;86224.87852899999;0;0.2166748;90.53164;3232235846;179021379;3;1;0.36;-15.88777;-20.32901;0
1556984863.804111;34;0;0;1556984862.582669;4.403336521593463;-75.14722932171884;964.6492;-1;-1;10;65;-9999;1556984863.781081;-19.76089096069336;30.82600402832031;-6.547332763671875;10.09692192077637;16.87077140808105;30;86227.59609825001;-0.9852752685546875;-0.00177001953125;-0.1434478759765625;86227.58904925;-0.009995376203285397;0.008125570801940764;0.009818542306904135;86227.58795025;3.474044799804688;68.5579833984375;-413.3072814941406;86227.58807225;-1.865311351161829;-1.43498024164477;0.004353603778817058;0.0001089256256818771;-0.001657362561672926;0.0004665330052375793;0.005324780941009521;0.002492189407348633;-0.00934445858001709;2;-0.527125358581543;-0.3929885923862457;-0.6060324907302856;0.4476867914199829;-0.9907817840576172;-0.004353589843958616;-0.1353976428508759;-19.76089096069336;30.82600402832031;-6.547332763671875;2;86225.15661525;2;0;1556984861.344072;86224.87852899999;0;0.2166748;90.53164;3232235846;179021379;3;1;0.36;-15.88777;-20.32901;0
1556984863.805624;35;0;0;1556984862.582669;4.403336521593463;-75.14722932171884;964.6492;-1;-1;10;65;-9999;1556984863.781081;-19.76089096069336;30.82600402832031;-6.547332763671875;10.09692192077637;16.87077140808105;30;86227.60610825001;-0.9850311279296875;-0.0026702880859375;-0.14398193359375;86227.59905825001;-0.009704559012248743;0.006807838694569556;0.008365787932265912;86227.58795025;3.474044799804688;68.5579833984375;-413.3072814941406;86227.59808225;-1.865309171063755;-1.434971276257498;0.004354989615300554;-0.0006314339116215706;0.0005626487545669079;-0.0008791624568402767;0.005811870098114014;0.002402007579803467;-0.007870793342590332;2;-0.527121901512146;-0.3929875791072845;-0.6060346364974976;0.4476888477802277;-0.9907805919647217;-0.004354975651949644;-0.1354065239429474;-19.76089096069336;30.82600402832031;-6.547332763671875;2;86225.15661525;2;0;1556984861.344072;86224.87852899999;0;0.2166748;90.53164;3232235846;179021379;3;1;0.36;-15.88777;-20.32901;0
1556984863.854226;36;0;0;1556984862.582669;4.403336521593463;-75.14722932171884;964.6492;-1;-1;10;65;-9999;1556984863.830901;-19.56145095825195;30.95989990234375;-6.941436767578125;10.09601211547852;16.8698616027832;30;86227.61611825001;-0.985443115234375;-0.002655029296875;-0.1447296142578125;86227.60909925001;-0.01034132082888669;0.008417186941304441;0.007219829715204815;86227.60742025;3.553009033203125;68.831787109375;-413.8330078125;86227.60812225001;-1.865302625754887;-1.43495954673807;0.004355617178366392;0.001119851134717464;0.001937009859830141;-0.000143163837492466;0.005749344825744629;0.001548141241073608;-0.008911967277526855;2;-0.5271168947219849;-0.3929868936538696;-0.6060364246368408;0.4476930499076843;-0.9907791018486023;-0.004355603363364935;-0.1354181617498398;-19.70245170593262;31.02716064453125;-6.924346923828125;2;86225.15661525;2;0;1556984861.344072;86224.87852899999;0;0.2166748;90.53164;3232235846;179021379;3;1;0.36;-15.88777;-21.71393;0
1556984863.857183;37;0;0;1556984862.582669;4.403336521593463;-75.14722932171884;964.6492;-1;-1;10;65;-9999;1556984863.856388;-19.5150203704834;30.97629547119141;-6.9801025390625;10.09640121459961;16.8702507019043;30;86227.62615825;-0.98516845703125;-0.001861572265625;-0.144256591796875;86227.61910825;-0.007888016832705695;0.005485312897236207;0.007119694858217836;86227.62689025;3.650604248046875;68.99954223632812;-413.9242248535156;86227.61813225001;-1.865307844670886;-1.434966379761515;0.004358683483488197;-0.001539315097033978;-0.0005341367796063423;-0.0004813848063349724;0.005460143089294434;0.002070009708404541;-0.009269475936889648;2;-0.5271192789077759;-0.392987996339798;-0.6060364246368408;0.4476893842220306;-0.9907800555229187;-0.004358669742941856;-0.1354113966226578;-19.70245170593262;31.02716064453125;-6.924346923828125;2;86225.15661525;2;0;1556984861.344072;86224.87852899999;0;0.2166748;90.53164;3232235846;179021379;3;1;0.36;-15.88777;-21.71393;0
1556984863.858361;38;0;0;1556984862.582669;4.403336521593463;-75.14722932171884;964.6492;-1;-1;10;65;-9999;1556984863.856388;-19.5150203704834;30.97629547119141;-6.9801025390625;10.09640121459961;16.8702507019043;30;86227.63616825;-0.9850616455078125;-0.0025177001953125;-0.144012451171875;86227.62911825;-0.009244631091992059;0.009599896781408631;0.008249141476520441;86227.62689025;3.650604248046875;68.99954223632812;-413.9242248535156;86227.62814225;-1.865298549305943;-1.434962132283631;0.004371881592647794;0.0009608063846826553;0.0004224507138133049;-0.001670524477958679;0.00581049919128418;0.002357840538024902;-0.009036421775817871;2;-0.5271131992340088;-0.3929934799671173;-0.6060380339622498;0.4476895332336426;-0.9907793998718262;-0.004371867515146732;-0.1354155987501144;-19.64505577087402;31.15036773681641;-7.01971435546875;2;86225.15661525;2;0;1556984861.344072;86224.87852899999;0;0.2166748;90.53164;3232235846;179021379;3;1;0.36;-15.88777;-21.71393;0
1556984863.86155;39;0;0;1556984862.582669;4.403336521593463;-75.14722932171884;964.6492;-1;-1;10;65;-9999;1556984863.856388;-19.5150203704834;30.97629547119141;-6.9801025390625;10.09640121459961;16.8702507019043;30;86227.64617825001;-0.9854278564453125;-0.0023345947265625;-0.1445770263671875;86227.63912825001;-0.009016398186572268;0.008303203646649049;0.008490423871281618;86227.64636125001;3.661117553710938;68.77084350585938;-413.8803100585938;86227.63815125001;-1.865296791285725;-1.434950122017233;0.004375114524990578;-0.0005651842802762985;0.0002096644602715969;-0.0006670448929071426;0.005869805812835693;0.001689702272415161;-0.008520960807800293;2;-0.5271084904670715;-0.392992228269577;-0.606041431427002;0.4476915597915649;-0.9907777905464172;-0.00437510060146451;-0.1354274898767471;-19.64505577087402;31.15036773681641;-7.01971435546875;2;86225.15661525;2;0;1556984861.344072;86224.87852899999;0;0.2166748;90.53164;3232235846;179021379;3;1;0.36;-15.88777;-21.71393;0
1556984863.863407;40;0;0;1556984862.582669;4.403336521593463;-75.14722932171884;964.6492;-1;-1;10;65;-9999;1556984863.856388;-19.5150203704834;30.97629547119141;-6.9801025390625;10.09640121459961;16.8702507019043;30;86227.65618725;-0.9852294921875;-0.0022430419921875;-0.1440277099609375;86227.64916825001;-0.01000922464095381;0.005958822939052296;0.00761291229210051;86227.64636125001;3.661117553710938;68.77084350585938;-413.8803100585938;86227.64819225001;-1.865293151569096;-1.434939951480366;0.004377288168810452;0.0001628780737519264;0.001150279305875301;-0.0007701022550463676;0.005136013031005859;0.002317488193511963;-0.008877396583557129;2;-0.5271042585372925;-0.3929915130138397;-0.6060436367988586;0.4476939141750336;-0.9907761812210083;-0.004377274308353662;-0.135437548160553;-19.56145095825195;30.95989990234375;-6.941436767578125;2;86225.15661525;2;0;1556984861.344072;86224.87852899999;0;0.2166748;90.53164;3232235846;179021379;3;1;0.36;-15.88777;-22.2486;0
1556984863.864688;41;0;0;1556984862.582669;4.403336521593463;-75.14722932171884;964.6492;-1;-1;10;65;-9999;1556984863.856388;-19.5150203704834;30.97629547119141;-6.9801025390625;10.09640121459961;16.8702507019043;30;86227.66622825;-0.985443115234375;-0.002410888671875;-0.1439208984375;86227.65917825;-0.01118900500385891;0.007729825063954989;0.009667541073096643;86227.66583125001;3.740234375;68.79879760742188;-413.8941040039062;86227.65820125;-1.865302907628704;-1.434938685104657;0.004367377010370234;-0.001651533879339695;-0.0004859664477407932;0.0009356522932648659;0.005837857723236084;0.00204816460609436;-0.00854039192199707;2;-0.5271080136299133;-0.3929856717586517;-0.6060442328453064;0.4476938545703888;-0.9907760620117188;-0.004367363173514605;-0.1354388147592545;-19.56145095825195;30.95989990234375;-6.941436767578125;2;86225.15661525;2;0;1556984861.344072;86224.87852899999;0;0.2166748;90.53164;3232235846;179021379;3;1;0.36;-15.88777;-22.2486;0
1556984863.865645;42;0;0;1556984862.582669;4.403336521593463;-75.14722932171884;964.6492;-1;-1;10;65;-9999;1556984863.856388;-19.5150203704834;30.97629547119141;-6.9801025390625;10.09640121459961;16.8702507019043;30;86227.67623725001;-0.9856109619140625;-0.001983642578125;-0.14373779296875;86227.66918825;-0.01060124535127842;0.005885586009075116;0.006449643527953899;86227.66583125001;3.740234375;68.79879760742188;-413.8941040039062;86227.66821125;-1.865300603483053;-1.434930381083933;0.00437611201022731;0.001168214716017246;0.0005475999787449837;-0.002065285574644804;0.005089104175567627;0.002026408910751343;-0.008455872535705566;2;-0.527103066444397;-0.392987072467804;-0.6060476303100586;0.4476939141750336;-0.9907749891281128;-0.004376098047941923;-0.1354470402002335;-19.5150203704834;30.97629547119141;-6.9801025390625;2;86225.15661525;2;0;1556984861.344072;86224.87852899999;0;0.2166748;90.53164;3232235846;179021379;3;1;0.36;-15.88777;-22.2486;0
1556984863.868478;43;0;0;1556984862.582669;4.403336521593463;-75.14722932171884;964.6492;-1;-1;10;65;-9999;1556984863.856388;-19.5150203704834;30.97629547119141;-6.9801025390625;10.09640121459961;16.8702507019043;30;86227.68624725001;-0.9849700927734375;-0.001678466796875;-0.1441802978515625;86227.67922825001;-0.01004624258010591;0.006829676615508207;0.008816927420925333;86227.68530125001;3.669631958007812;68.60581970214844;-413.6773681640625;86227.67825225;-1.865297115186151;-1.434929662481385;0.004373740001399734;0.0006387783214449883;0.0008248351514339447;0.0009515434503555298;0.005516171455383301;0.002542823553085327;-0.008333086967468262;2;-0.5271027088165283;-0.3929871022701263;-0.6060465574264526;0.4476957023143768;-0.9907748103141785;-0.004373725969344378;-0.1354477405548096;-19.5150203704834;30.97629547119141;-6.9801025390625;2;86225.15661525;2;0;1556984861.344072;86224.87852899999;0;0.2166748;90.53164;3232235846;179021379;3;1;0.36;-15.88777;-22.2486;0
1556984863.878429;44;0;0;1556984862.582669;4.403336521593463;-75.14722932171884;964.6492;-1;-1;10;65;-9999;1556984863.856388;-19.5150203704834;30.97629547119141;-6.9801025390625;10.09640121459961;16.8702507019043;30;86227.69625725001;-0.98443603515625;-0.002105712890625;-0.144622802734375;86227.68923825001;-0.01011521845233896;0.005609682520142907;0.006849117691465785;86227.68530125001;3.669631958007812;68.60581970214844;-413.6773681640625;86227.68826125;-1.86529649650874;-1.434927473591735;0.004376942833209751;0.0002852445468306541;0.00113457627594471;-0.0001429803669452667;0.005943059921264648;0.002668082714080811;-0.008864760398864746;2;-0.5271011590957642;-0.3929877877235413;-0.6060476899147034;0.4476956129074097;-0.9907746911048889;-0.00437692878767848;-0.1354499310255051;-19.56487655639648;30.89024353027344;-6.834259033203125;2;86225.15661525;2;0;1556984861.344072;86224.87852899999;0;0.2166748;90.53164;3232235846;179021379;3;1;0.36;-15.88777;-22.2486;0
1556984863.889316;45;0;0;1556984862.582669;4.403336521593463;-75.14722932171884;964.6492;-1;-1;10;65;-9999;1556984863.881009;-19.56487655639648;30.89024353027344;-6.834259033203125;10.09628295898438;16.87013244628906;30;86227.70629725;-0.985595703125;-0.0030517578125;-0.1442718505859375;86227.69924825001;-0.009235310028176782;0.006995325235311135;0.009227320544906544;86227.70477125001;3.647293090820312;68.29324340820312;-413.6230773925781;86227.69827125;-1.865297759295464;-1.434928177449929;0.00438057885362093;0.0002977615222334862;-0.001216461881995201;-0.001056711189448833;0.005943179130554199;0.002152949571609497;-0.009140372276306152;2;-0.5271008610725403;-0.3929886519908905;-0.6060484051704407;0.447693943977356;-0.9907745718955994;-0.004380564671009779;-0.1354492008686066;-19.56487655639648;30.89024353027344;-6.834259033203125;2;86225.15661525;2;0;1556984861.344072;86224.87852899999;0;0.2166748;90.53164;3232235846;179021379;3;1;0.36;-15.88777;-22.98007;0
1556984863.898622;46;0;0;1556984862.582669;4.403336521593463;-75.14722932171884;964.6492;-1;-1;10;65;-9999;1556984863.881009;-19.56487655639648;30.89024353027344;-6.834259033203125;10.09628295898438;16.87013244628906;30;86227.71630725001;-0.985626220703125;-0.002716064453125;-0.14453125;86227.70925725001;-0.01041695460384494;0.006963100986121176;0.008585498722197448;86227.70477125001;3.647293090820312;68.29324340820312;-413.6230773925781;86227.70828125;-1.865306879990632;-1.43492623798803;0.004368917633956769;-0.001822910271584988;-0.0006473362445831299;0.00131789967417717;0.005180001258850098;0.001347810029983521;-0.00901639461517334;2;-0.5271046757698059;-0.3929823040962219;-0.6060487031936646;0.4476946890354156;-0.990774393081665;-0.004368903581053019;-0.1354511380195618;-19.58424377441406;30.68424224853516;-6.826141357421875;2;86225.15661525;2;0;1556984861.344072;86224.87852899999;0;0.2166748;90.53164;3232235846;179021379;3;1;0.36;-15.88777;-22.98007;0
1556984863.908576;47;0;0;1556984862.582669;4.403336521593463;-75.14722932171884;964.6492;-1;-1;10;65;-9999;1556984863.90542;-19.58424377441406;30.68424224853516;-6.826141357421875;10.09623718261719;16.87008666992188;30;86227.72631725001;-0.985443115234375;-0.0028533935546875;-0.14422607421875;86227.71929825;-0.008256332011463655;0.006682137491117817;0.008469917530888009;86227.72421125001;3.651336669921875;68.67434692382812;-413.7052307128906;86227.71832125001;-1.865301540689533;-1.434923557672705;0.004378328310335472;0.0008684806525707245;0.0006211274303495884;-0.001576956361532211;0.005255937576293945;0.00169295072555542;-0.008830547332763672;2;-0.527100682258606;-0.3929859697818756;-0.6060500741004944;0.4476943910121918;-0.9907740354537964;-0.004378314130008221;-0.1354537904262543;-19.58424377441406;30.68424224853516;-6.826141357421875;2;86225.15661525;2;0;1556984861.344072;86224.87852899999;0;0.2166748;90.53164;3232235846;179021379;3;1;0.36;-15.88777;-22.98007;0
1556984863.920293;48;0;0;1556984862.582669;4.403336521593463;-75.14722932171884;964.6492;-1;-1;10;65;-9999;1556984863.90542;-19.58424377441406;30.68424224853516;-6.826141357421875;10.09623718261719;16.87008666992188;30;86227.73635725;-0.98553466796875;-0.0022125244140625;-0.144012451171875;86227.72930725;-0.008683503050312364;0.006027266179067332;0.00741663731976167;86227.72421125001;3.651336669921875;68.67434692382812;-413.7052307128906;86227.72833125001;-1.865293646800946;-1.434920710812582;0.004382798543022795;0.0009917076677083969;0.001324813347309828;-0.0003052623942494392;0.005331814289093018;0.001392245292663574;-0.008995592594146729;2;-0.5270972847938538;-0.3929887413978577;-0.6060498952865601;0.4476960897445679;-0.9907735586166382;-0.004382784478366375;-0.1354566067457199;-19.58963012695312;30.87841033935547;-6.8516845703125;2;86225.15661525;2;0;1556984861.344072;86224.87852899999;0;0.2166748;90.53164;3232235846;179021379;3;1;0.36;-15.88777;-23.69815;0
1556984863.928697;49;0;0;1556984862.582669;4.403336521593463;-75.14722932171884;964.6492;-1;-1;10;65;-9999;1556984863.90542;-19.58424377441406;30.68424224853516;-6.826141357421875;10.09623718261719;16.87008666992188;30;86227.74636725;-0.9854583740234375;-0.0025177001953125;-0.1441192626953125;86227.73931725;-0.0107383981474175;0.007332481429315167;0.008159659263893778;86227.74368125001;3.509689331054688;68.84225463867188;-413.9320678710938;86227.73834125001;-1.865287453032482;-1.434928122190658;0.004383584341338871;0.0008276570588350296;-0.0005881353281438351;-0.0005348268896341324;0.005348086357116699;0.002110183238983154;-0.008499383926391602;2;-0.5270981192588806;-0.3929922878742218;-0.606046736240387;0.4476963579654694;-0.9907746315002441;-0.00438357051461935;-0.1354492753744125;-19.58963012695312;30.87841033935547;-6.8516845703125;2;86225.15661525;2;0;1556984861.344072;86224.87852899999;0;0.2166748;90.53164;3232235846;179021379;3;1;0.36;-15.88777;-23.69815;0
1556984863.938766;50;0;0;1556984862.582669;4.403336521593463;-75.14722932171884;964.6492;-1;-1;10;65;-9999;1556984863.931083;-19.68385314941406;30.94703674316406;-6.978424072265625;10.09540367126465;16.86925315856934;30;86227.75637725;-0.985198974609375;-0.0021514892578125;-0.1436614990234375;86227.74935725001;-0.009440639748221891;0.007914382127497481;0.009068596143937822;86227.74368125001;3.509689331054688;68.84225463867188;-413.9320678710938;86227.74838125;-1.865282641005523;-1.434917373570655;0.004373617540866696;0.0006659021601080894;0.002663156483322382;0.001407399773597717;0.005300998687744141;0.001825541257858276;-0.008702397346496582;2;-0.527096152305603;-0.3929881453514099;-0.6060465574264526;0.4477025866508484;-0.9907732605934143;-0.004373603500425816;-0.1354599297046661;-19.68385314941406;30.94703674316406;-6.978424072265625;2;86225.15661525;2;0;1556984861.344072;86224.87852899999;0;0.2166748;90.53164;3232235846;179021379;3;1;0.36;-15.88777;-24.07978;0
1556984863.949185;51;0;0;1556984862.582669;4.403336521593463;-75.14722932171884;964.6492;-1;-1;10;65;-9999;1556984863.931083;-19.68385314941406;30.94703674316406;-6.978424072265625;10.09540367126465;16.86925315856934;30;86227.76638625;-0.985076904296875;-0.0022735595703125;-0.144256591796875;86227.75936725001;-0.009264072167949639;0.004925250119992543;0.008741559962076092;86227.76312125;3.5416259765625;68.99946594238281;-413.5857238769531;86227.75839125001;-1.865279722740903;-1.43492526233898;0.004366654719198962;0.0007359432056546211;-0.0006487509235739708;0.001477707177400589;0.005637645721435547;0.002245843410491943;-0.008328676223754883;2;-0.5270995497703552;-0.3929885625839233;-0.6060424447059631;0.4477037191390991;-0.9907742738723755;-0.00436664093285799;-0.1354521065950394;-19.68385314941406;30.94703674316406;-6.978424072265625;2;86225.15661525;2;0;1556984861.344072;86224.87852899999;0;0.2166748;90.53164;3232235846;179021379;3;1;0.36;-15.88777;-24.07978;0
1556984863.958722;52;0;0;1556984862.582669;4.403336521593463;-75.14722932171884;964.6492;-1;-1;10;65;-9999;1556984863.954927;-19.66558265686035;31.07532501220703;-6.743255615234375;10.0954475402832;16.86929702758789;30;86227.77642725001;-0.9848480224609375;-0.0024566650390625;-0.1442413330078125;86227.76937725001;-0.01086543093141428;0.007981493786967477;0.008301605749995002;86227.76312125;3.5416259765625;68.99946594238281;-413.5857238769531;86227.76840025;-1.865281413156568;-1.434912454911493;0.004369445971065769;0.0007590996101498604;0.001486463937908411;-0.0006721513345837593;0.005895376205444336;0.001836627721786499;-0.0090789794921875;2;-0.5270953774452209;-0.3929860889911652;-0.606046736240387;0.4477049708366394;-0.990772545337677;-0.004369432106614113;-0.1354647874832153;-19.66558265686035;31.07532501220703;-6.743255615234375;2;86225.15661525;2;0;1556984861.344072;86224.87852899999;0;0.2166748;90.53164;3232235846;179021379;3;1;0.36;-15.88777;-24.31118;0
1556984863.968701;53;0;0;1556984862.582669;4.403336521593463;-75.14722932171884;964.6492;-1;-1;10;65;-9999;1556984863.954927;-19.66558265686035;31.07532501220703;-6.743255615234375;10.0954475402832;16.86929702758789;30;86227.78643625001;-0.984619140625;-0.0015106201171875;-0.1437530517578125;86227.77938725;-0.009981527765616985;0.009824933893520326;0.008881375919305252;86227.78259125001;3.652435302734375;68.8026123046875;-413.6881103515625;86227.77841025;-1.865281782219577;-1.434897004719942;0.004368277323223183;0.0009066388010978699;0.0002124076709151268;0.0004572952166199684;0.006152689456939697;0.002216935157775879;-0.0087127685546875;2;-0.5270910263061523;-0.3929821848869324;-0.6060506701469421;0.4477082192897797;-0.9907704591751099;-0.00436826329678297;-0.1354801058769226;-19.66558265686035;31.07532501220703;-6.743255615234375;2;86225.15661525;2;0;1556984861.344072;86224.87852899999;0;0.2166748;90.53164;3232235846;179021379;3;1;0.36;-15.88777;-24.31118;0
1556984863.979278;54;0;0;1556984862.582669;4.403336521593463;-75.14722932171884;964.6492;-1;-1;10;65;-9999;1556984863.954927;-19.66558265686035;31.07532501220703;-6.743255615234375;10.0954475402832;16.86929702758789;30;86227.79644625001;-0.984954833984375;-0.0020294189453125;-0.1445159912109375;86227.78942725;-0.009952499309735121;0.005899700762852536;0.007571100662986266;86227.78259125001;3.652435302734375;68.8026123046875;-413.6881103515625;86227.78845025001;-1.86528741766736;-1.434892511910792;0.004375658409563068;-0.0004362072795629501;-0.000652385875582695;-0.001474443823099136;0.006243586540222168;0.002880454063415527;-0.00844883918762207;2;-0.5270891189575195;-0.3929819166660309;-0.6060545444488525;0.4477054178714752;-0.9907698035240173;-0.004375644493848085;-0.1354845464229584;-19.62760162353516;30.95701599121094;-6.820709228515625;2;86225.15661525;2;0;1556984861.344072;86224.87852899999;0;0.2166748;90.53164;3232235846;179021379;3;1;0.36;-15.88777;-24.31118;0
1556984863.988791;55;0;0;1556984862.582669;4.403336521593463;-75.14722932171884;964.6492;-1;-1;10;65;-9999;1556984863.98149;-19.62760162353516;30.95701599121094;-6.820709228515625;10.09565544128418;16.86950492858887;30;86227.80648625;-0.984619140625;-0.0030059814453125;-0.1439056396484375;86227.79943725001;-0.009795106489311438;0.004853611086669412;0.008036354905423109;86227.80206125001;3.688583374023438;68.3477783203125;-413.78173828125;86227.79846025001;-1.86528683294834;-1.434896046557489;0.004368009694784025;0.0003238590434193611;-0.001216177362948656;0.0008859159424901009;0.005923628807067871;0.00220140814781189;-0.009108483791351318;2;-0.5270918011665344;-0.392980545759201;-0.6060519814491272;0.4477069079875946;-0.9907702803611755;-0.004367996007204056;-0.1354810446500778;-19.62760162353516;30.95701599121094;-6.820709228515625;2;86225.15661525;2;0;1556984861.344072;86224.87852899999;0;0.2166748;90.53164;3232235846;179021379;3;1;0.36;-15.88777;-25.09668;0
1556984864.002413;56;0;0;1556984862.582669;4.403336521593463;-75.14722932171884;964.6492;-1;-1;10;65;-9999;1556984863.98149;-19.62760162353516;30.95701599121094;-6.820709228515625;10.09565544128418;16.86950492858887;30;86227.81649625;-0.9851226806640625;-0.00225830078125;-0.14447021484375;86227.80944725001;-0.00815166978062354;0.006204899023775617;0.007656854450086818;86227.80206125001;3.688583374023438;68.3477783203125;-413.78173828125;86227.80847025001;-1.86527984782233;-1.434896680970261;0.004366874060645796;0.001221566461026669;-0.0001183398999273777;-0.0003778347745537758;0.00601506233215332;0.001361042261123657;-0.008269667625427246;2;-0.527090847492218;-0.3929822146892548;-0.6060500741004944;0.4477092921733856;-0.9907704591751099;-0.004366860259324312;-0.1354804337024689;-19.58430862426758;30.65634155273438;-6.89404296875;2;86225.15661525;2;0;1556984861.344072;86224.87852899999;0;0.2166748;90.53164;3232235846;179021379;3;1;0.36;-15.88777;-25.53543;0
1556984864.008805;57;0;0;1556984862.582669;4.403336521593463;-75.14722932171884;964.6492;-1;-1;10;65;-9999;1556984864.005104;-19.57624626159668;30.69479370117188;-6.822906494140625;10.0953254699707;16.86917495727539;30;86227.82650625;-0.984893798828125;-0.0016021728515625;-0.1442718505859375;86227.81945625;-0.009682454775201086;0.006864564025788244;0.007295197174054057;86227.82153225;3.67462158203125;68.36073303222656;-413.658203125;86227.81848025;-1.865277301841272;-1.434905528226266;0.004370298271935822;0.0004175575450062752;-0.0008389912545681;-0.000362122431397438;0.005619466304779053;0.002279967069625854;-0.009087204933166504;2;-0.5270922780036926;-0.3929858803749084;-0.6060478091239929;0.4477073550224304;-0.9907715916633606;-0.004370284266769886;-0.1354716569185257;-19.58430862426758;30.65634155273438;-6.89404296875;2;86225.15661525;2;0;1556984861.344072;86224.87852899999;0;0.2166748;90.53164;3232235846;179021379;3;1;0.36;-15.88777;-25.53543;0
1556984864.018807;58;0;0;1556984862.582669;4.403336521593463;-75.14722932171884;964.6492;-1;-1;10;65;-9999;1556984864.005104;-19.57624626159668;30.69479370117188;-6.822906494140625;10.0953254699707;16.86917495727539;30;86227.83651625001;-0.98480224609375;-0.0027618408203125;-0.14453125;86227.82949725;-0.008267517288041986;0.007615042820972574;0.01077408450602457;86227.82153225;3.67462158203125;68.36073303222656;-413.658203125;86227.82852025001;-1.865282013141728;-1.434908464985557;0.004366698690322589;-0.001143892295658588;-0.0004691565409302711;-0.0001822737976908684;0.00574195384979248;0.002612084150314331;-0.008876502513885498;2;-0.5270949006080627;-0.3929842114448547;-0.6060473918914795;0.4477063119411469;-0.990772008895874;-0.004366684705018997;-0.1354687511920929;-19.57624626159668;30.69479370117188;-6.822906494140625;2;86225.15661525;2;0;1556984861.344072;86224.87852899999;0;0.2166748;90.53164;3232235846;179021379;3;1;0.36;-15.88777;-25.53543;0
1556984864.028684;59;0;0;1556984862.582669;4.403336521593463;-75.14722932171884;964.6492;-1;-1;10;65;-9999;1556984864.005104;-19.57624626159668;30.69479370117188;-6.822906494140625;10.0953254699707;16.86917495727539;30;86227.84655625001;-0.9852294921875;-0.0026397705078125;-0.144256591796875;86227.83950625001;-0.00761424387264555;0.007257912918792948;0.00865846933606562;86227.84097125;3.477218627929688;68.72421264648438;-413.6693725585938;86227.83853025001;-1.865274244756226;-1.434895869813985;0.004367155360294263;0.0003115246072411537;0.001175078563392162;-0.001541550736874342;0.006014823913574219;0.001529127359390259;-0.00897061824798584;2;-0.5270894169807434;-0.392983615398407;-0.606049120426178;0.4477111399173737;-0.9907704591751099;-0.004367141518741846;-0.1354812532663345;-19.57624626159668;30.69479370117188;-6.822906494140625;2;86225.15661525;2;0;1556984861.344072;86224.87852899999;0;0.2166748;90.53164;3232235846;179021379;3;1;0.36;-15.88777;-26.22275;0
1556984864.039386;60;0;0;1556984862.582669;4.403336521593463;-75.14722932171884;964.6492;-1;-1;10;65;-9999;1556984864.031171;-19.7052001953125;30.95070648193359;-6.803131103515625;10.09504318237305;16.86889266967773;30;86227.85656625;-0.985076904296875;-0.00201416015625;-0.1441650390625;86227.84951625;-0.009539975656881847;0.006775880761488605;0.007250722383849734;86227.84097125;3.477218627929688;68.72421264648438;-413.6693725585938;86227.84854025001;-1.865276064707367;-1.4349027023339;0.004369974979361066;-0.001520439982414246;-0.002112342976033688;-0.0003060605376958847;0.005573272705078125;0.00159299373626709;-0.008656919002532959;2;-0.5270912051200867;-0.3929855227470398;-0.6060482859611511;0.4477085173130035;-0.9907713532447815;-0.004369961097836494;-0.1354744881391525;-19.7052001953125;30.95070648193359;-6.803131103515625;2;86225.15661525;2;0;1556984861.344072;86224.87852899999;0;0.2166748;90.53164;3232235846;179021379;3;1;0.36;-15.88777;-26.22275;0
